{
"type": "FeatureCollection",
"name": "points",
"features": [
{ "type": "Feature", "properties": { "osm_id": "1294994835", "highway": "motorway_junction", "ref": "4" }, "geometry": { "type": "Point", "coordinates": [ 117.23555, 31.8019056 ] } },
{ "type": "Feature", "properties": { "osm_id": "1295017465", "highway": "motorway_junction", "ref": "3B" }, "geometry": { "type": "Point", "coordinates": [ 117.2523474, 31.8227034 ] } },
{ "type": "Feature", "properties": { "osm_id": "1295017507", "highway": "motorway_junction", "ref": "3A" }, "geometry": { "type": "Point", "coordinates": [ 117.2489402, 31.8183271 ] } },
{ "type": "Feature", "properties": { "osm_id": "1303900145", "highway": "motorway_junction", "ref": "1" }, "geometry": { "type": "Point", "coordinates": [ 117.2651822, 31.8459557 ] } },
{ "type": "Feature", "properties": { "osm_id": "1316378800", "highway": "crossing" }, "geometry": { "type": "Point", "coordinates": [ 117.2654617, 31.830943 ] } },
{ "type": "Feature", "properties": { "osm_id": "2034232726", "name": "德胜门", "highway": "motorway_junction", "other_tags": "\"name:zh-Hant\"=>\"德勝門\",\"old_name\"=>\"金屯\"" }, "geometry": { "type": "Point", "coordinates": [ 117.2666979, 31.8481194 ] } },
{ "type": "Feature", "properties": { "osm_id": "2653235824", "name": "西区水果店", "other_tags": "\"opening_hours\"=>\"Sa-Su 00:00-24:00\",\"shop\"=>\"greengrocer\",\"wheelchair\"=>\"yes\"" }, "geometry": { "type": "Point", "coordinates": [ 117.2490633, 31.8421709 ] } },
{ "type": "Feature", "properties": { "osm_id": "2653309055", "name": "西三餐厅", "other_tags": "\"amenity\"=>\"restaurant\",\"name:zh\"=>\"西三餐厅\",\"name:zh-Hans\"=>\"西三餐厅\",\"name:zh-Hant\"=>\"西三餐廳\",\"smoking\"=>\"no\",\"wheelchair\"=>\"yes\"" }, "geometry": { "type": "Point", "coordinates": [ 117.2482977, 31.842704 ] } },
{ "type": "Feature", "properties": { "osm_id": "2653309056", "name": "正阳楼餐厅", "other_tags": "\"amenity\"=>\"restaurant\",\"name:zh\"=>\"正阳楼餐厅\",\"name:zh-Hans\"=>\"正阳楼餐厅\",\"name:zh-Hant\"=>\"正陽樓餐廳\",\"smoking\"=>\"no\",\"wheelchair\"=>\"yes\"" }, "geometry": { "type": "Point", "coordinates": [ 117.248687, 31.8427601 ] } },
{ "type": "Feature", "properties": { "osm_id": "2653323524", "name": "校医院（西区）", "other_tags": "\"amenity\"=>\"clinic\",\"emergency\"=>\"no\",\"healthcare\"=>\"clinic\",\"name:zh\"=>\"校医院（西区）\",\"name:zh-Hans\"=>\"校医院（西区）\",\"name:zh-Hant\"=>\"校醫院（西區）\",\"operator\"=>\"中国科学技术大学\",\"operator:type\"=>\"government\",\"wheelchair\"=>\"yes\"" }, "geometry": { "type": "Point", "coordinates": [ 117.2481104, 31.8409909 ] } },
{ "type": "Feature", "properties": { "osm_id": "2654166387", "name": "理发店", "other_tags": "\"name:zh\"=>\"理发店\",\"name:zh-Hans\"=>\"理发店\",\"name:zh-Hant\"=>\"理髮店\",\"operator\"=>\"中国科学技术大学\",\"shop\"=>\"hairdresser\",\"wheelchair\"=>\"yes\"" }, "geometry": { "type": "Point", "coordinates": [ 117.2492328, 31.8429843 ] } },
{ "type": "Feature", "properties": { "osm_id": "2654166415", "name": "中科超市", "other_tags": "\"name:zh\"=>\"中科超市\",\"name:zh-Hans\"=>\"中科超市\",\"name:zh-Hant\"=>\"中科超市\",\"operator\"=>\"中国科学技术大学\",\"shop\"=>\"supermarket\",\"wheelchair\"=>\"yes\"" }, "geometry": { "type": "Point", "coordinates": [ 117.2491075, 31.8429587 ] } },
{ "type": "Feature", "properties": { "osm_id": "2655271981", "name": "西区专家楼", "other_tags": "\"internet_access\"=>\"yes\",\"internet_access:fee\"=>\"customers\",\"name:zh\"=>\"西区专家楼\",\"name:zh-Hans\"=>\"西区专家楼\",\"name:zh-Hant\"=>\"西區專家樓\",\"operator\"=>\"中国科学技术大学\",\"smoking\"=>\"no\",\"tourism\"=>\"guest_house\",\"wheelchair\"=>\"yes\"" }, "geometry": { "type": "Point", "coordinates": [ 117.2505767, 31.837286 ] } },
{ "type": "Feature", "properties": { "osm_id": "2655271982", "name": "西区学生食堂", "other_tags": "\"amenity\"=>\"restaurant\",\"fast_food\"=>\"cafeteria\",\"name:zh\"=>\"西区学生食堂\",\"name:zh-Hans\"=>\"西区学生食堂\",\"name:zh-Hant\"=>\"西區學生食堂\",\"smoking\"=>\"no\",\"wheelchair\"=>\"yes\"" }, "geometry": { "type": "Point", "coordinates": [ 117.2485074, 31.8426793 ] } },
{ "type": "Feature", "properties": { "osm_id": "2655271983", "name": "科大糕点", "other_tags": "\"name:zh\"=>\"科大糕点\",\"name:zh-Hans\"=>\"科大糕点\",\"name:zh-Hant\"=>\"科大糕點\",\"operator\"=>\"中国科学技术大学\",\"shop\"=>\"bakery\",\"wheelchair\"=>\"yes\"" }, "geometry": { "type": "Point", "coordinates": [ 117.2488635, 31.8427029 ] } },
{ "type": "Feature", "properties": { "osm_id": "2655271985", "name": "金桔园餐厅", "other_tags": "\"amenity\"=>\"restaurant\",\"name:zh\"=>\"金桔园餐厅\",\"name:zh-Hans\"=>\"金桔园餐厅\",\"name:zh-Hant\"=>\"金桔園餐廳\",\"smoking\"=>\"no\",\"wheelchair\"=>\"yes\"" }, "geometry": { "type": "Point", "coordinates": [ 117.2483153, 31.8424434 ] } },
{ "type": "Feature", "properties": { "osm_id": "2655281933", "name": "芳华餐厅", "other_tags": "\"amenity\"=>\"restaurant\",\"name:zh\"=>\"芳华餐厅\",\"name:zh-Hans\"=>\"芳华餐厅\",\"name:zh-Hant\"=>\"芳華餐廳\",\"smoking\"=>\"no\",\"wheelchair\"=>\"yes\"" }, "geometry": { "type": "Point", "coordinates": [ 117.253193, 31.8391851 ] } },
{ "type": "Feature", "properties": { "osm_id": "2655281934", "name": "西苑餐厅", "other_tags": "\"amenity\"=>\"restaurant\",\"name:zh\"=>\"西苑餐厅\",\"name:zh-Hans\"=>\"西苑餐厅\",\"name:zh-Hant\"=>\"西苑餐廳\",\"smoking\"=>\"no\",\"wheelchair\"=>\"yes\"" }, "geometry": { "type": "Point", "coordinates": [ 117.2533481, 31.8392619 ] } },
{ "type": "Feature", "properties": { "osm_id": "2657108968", "other_tags": "\"amenity\"=>\"atm\"" }, "geometry": { "type": "Point", "coordinates": [ 117.2506996, 31.839574 ] } },
{ "type": "Feature", "properties": { "osm_id": "2657346028", "name": "科技之花", "other_tags": "\"artwork_type\"=>\"sculpture\",\"name:zh\"=>\"科技之花\",\"name:zh-Hans\"=>\"科技之花\",\"name:zh-Hant\"=>\"科技之花\",\"tourism\"=>\"artwork\"" }, "geometry": { "type": "Point", "coordinates": [ 117.2510492, 31.8398792 ] } },
{ "type": "Feature", "properties": { "osm_id": "2657427421", "name": "严济慈像", "other_tags": "\"artwork_type\"=>\"statue\",\"name:zh\"=>\"严济慈像\",\"name:zh-Hans\"=>\"严济慈像\",\"name:zh-Hant\"=>\"嚴濟慈像\",\"tourism\"=>\"artwork\"" }, "geometry": { "type": "Point", "coordinates": [ 117.2499432, 31.8397985 ] } },
{ "type": "Feature", "properties": { "osm_id": "2657427422", "name": "钱学森像", "other_tags": "\"name:zh\"=>\"钱学森像\",\"name:zh-Hans\"=>\"钱学森像\",\"name:zh-Hant\"=>\"錢學森像\",\"tourism\"=>\"artwork\"" }, "geometry": { "type": "Point", "coordinates": [ 117.2502159, 31.8420691 ] } },
{ "type": "Feature", "properties": { "osm_id": "2658999815", "name": "西区校车站", "highway": "bus_stop", "other_tags": "\"bus\"=>\"yes\",\"name:zh\"=>\"西区校车站\",\"name:zh-Hans\"=>\"西区校车站\",\"name:zh-Hant\"=>\"西區校車站\",\"public_transport\"=>\"platform\"" }, "geometry": { "type": "Point", "coordinates": [ 117.2510058, 31.8408857 ] } },
{ "type": "Feature", "properties": { "osm_id": "2659824980", "name": "中科大西区西门", "barrier": "gate", "other_tags": "\"access\"=>\"no\"" }, "geometry": { "type": "Point", "coordinates": [ 117.2462443, 31.839047 ] } },
{ "type": "Feature", "properties": { "osm_id": "2660655040", "other_tags": "\"entrance\"=>\"yes\"" }, "geometry": { "type": "Point", "coordinates": [ 117.2494738, 31.8423936 ] } },
{ "type": "Feature", "properties": { "osm_id": "2661084909", "name": "中科超市（西区）", "other_tags": "\"name:zh\"=>\"中科超市（西区）\",\"name:zh-Hans\"=>\"中科超市（西区）\",\"name:zh-Hant\"=>\"中科超市（西區）\",\"operator\"=>\"中国科学技术大学\",\"shop\"=>\"yes\",\"wheelchair\"=>\"yes\"" }, "geometry": { "type": "Point", "coordinates": [ 117.2539675, 31.8404267 ] } },
{ "type": "Feature", "properties": { "osm_id": "2682739102", "other_tags": "\"amenity\"=>\"post_box\"" }, "geometry": { "type": "Point", "coordinates": [ 117.2491519, 31.8425748 ] } },
{ "type": "Feature", "properties": { "osm_id": "2689411899", "name": "同步辐射实验室北门", "barrier": "gate", "other_tags": "\"access\"=>\"no\",\"bicycle\"=>\"designated\",\"foot\"=>\"designated\",\"motor_vehicle\"=>\"designated\",\"name:zh\"=>\"同步辐射实验室北门\",\"name:zh-Hans\"=>\"同步辐射实验室北门\",\"name:zh-Hant\"=>\"同步輻射實驗室北門\"" }, "geometry": { "type": "Point", "coordinates": [ 117.2502396, 31.8385554 ] } },
{ "type": "Feature", "properties": { "osm_id": "2705289540", "name": "东区老北门", "barrier": "gate", "other_tags": "\"bicycle\"=>\"yes\",\"foot\"=>\"yes\",\"horse\"=>\"yes\",\"motor_vehicle\"=>\"no\",\"name:zh\"=>\"东区老北门\",\"name:zh-Hans\"=>\"东区老北门\",\"name:zh-Hant\"=>\"東區老北門\",\"operator\"=>\"中国科学技术大学\"" }, "geometry": { "type": "Point", "coordinates": [ 117.2634979, 31.8427261 ] } },
{ "type": "Feature", "properties": { "osm_id": "2705292657", "other_tags": "\"entrance\"=>\"yes\"" }, "geometry": { "type": "Point", "coordinates": [ 117.2475837, 31.8413712 ] } },
{ "type": "Feature", "properties": { "osm_id": "2735659690", "name": "一心亭", "other_tags": "\"amenity\"=>\"shelter\",\"name:zh\"=>\"一心亭\",\"name:zh-Hans\"=>\"一心亭\",\"name:zh-Hant\"=>\"一心亭\"" }, "geometry": { "type": "Point", "coordinates": [ 117.2502137, 31.8415429 ] } },
{ "type": "Feature", "properties": { "osm_id": "2736010359", "other_tags": "\"amenity\"=>\"shelter\"" }, "geometry": { "type": "Point", "coordinates": [ 117.2507359, 31.8416065 ] } },
{ "type": "Feature", "properties": { "osm_id": "2755623225", "name": "中科大东区北门", "barrier": "gate", "other_tags": "\"bicycle\"=>\"designated\",\"foot\"=>\"designated\",\"motor_vehicle\"=>\"designated\",\"name:zh\"=>\"中科大东区北门\",\"name:zh-Hans\"=>\"中科大东区北门\",\"name:zh-Hant\"=>\"中科大東區北門\"" }, "geometry": { "type": "Point", "coordinates": [ 117.2646226, 31.8434444 ] } },
{ "type": "Feature", "properties": { "osm_id": "2755623244", "name": "专家楼", "other_tags": "\"internet_access\"=>\"yes\",\"internet_access:fee\"=>\"customers\",\"name:zh\"=>\"专家楼\",\"name:zh-Hans\"=>\"专家楼\",\"name:zh-Hant\"=>\"專家樓\",\"operator\"=>\"中国科学技术大学\",\"smoking\"=>\"no\",\"tourism\"=>\"guest_house\",\"wheelchair\"=>\"yes\"" }, "geometry": { "type": "Point", "coordinates": [ 117.2641396, 31.8425638 ] } },
{ "type": "Feature", "properties": { "osm_id": "2757790288", "highway": "motorway_junction", "ref": "2B" }, "geometry": { "type": "Point", "coordinates": [ 117.2593525, 31.8351532 ] } },
{ "type": "Feature", "properties": { "osm_id": "3023775143", "other_tags": "\"amenity\"=>\"shelter\"" }, "geometry": { "type": "Point", "coordinates": [ 117.2507731, 31.8410893 ] } },
{ "type": "Feature", "properties": { "osm_id": "3026333810", "name": "火灾科学国家重点实验室", "other_tags": "\"name:en\"=>\"State Key Laboratory of Fire Science\",\"name:zh\"=>\"火灾科学国家重点实验室\",\"name:zh-Hans\"=>\"火灾科学国家重点实验室\",\"name:zh-Hant\"=>\"火災科學國家重點實驗室\",\"office\"=>\"research\",\"operator\"=>\"中国科学技术大学\",\"smoking\"=>\"no\",\"wheelchair\"=>\"yes\"" }, "geometry": { "type": "Point", "coordinates": [ 117.2485004, 31.8406952 ] } },
{ "type": "Feature", "properties": { "osm_id": "3026612881", "name": "郭沫若先生像", "other_tags": "\"artwork_type\"=>\"statue\",\"name:zh\"=>\"郭沫若先生像\",\"name:zh-Hans\"=>\"郭沫若先生像\",\"name:zh-Hant\"=>\"郭沫若先生像\",\"tourism\"=>\"artwork\"" }, "geometry": { "type": "Point", "coordinates": [ 117.2636838, 31.8405363 ] } },
{ "type": "Feature", "properties": { "osm_id": "3112603841", "barrier": "gate" }, "geometry": { "type": "Point", "coordinates": [ 117.2653187, 31.8420073 ] } },
{ "type": "Feature", "properties": { "osm_id": "3114535098", "name": "中科大东区东门", "barrier": "gate", "other_tags": "\"name:zh\"=>\"中科大东区东门\",\"name:zh-Hans\"=>\"中科大东区东门\",\"name:zh-Hant\"=>\"中科大東區東門\"" }, "geometry": { "type": "Point", "coordinates": [ 117.2676106, 31.839735 ] } },
{ "type": "Feature", "properties": { "osm_id": "3271024074", "other_tags": "\"description\"=>\"有轨电车\",\"railway\"=>\"level_crossing\"" }, "geometry": { "type": "Point", "coordinates": [ 117.2537579, 31.824776 ] } },
{ "type": "Feature", "properties": { "osm_id": "3313383432", "barrier": "gate", "other_tags": "\"access\"=>\"permissive\",\"operator\"=>\"中国科学技术大学\"" }, "geometry": { "type": "Point", "coordinates": [ 117.251429, 31.8430656 ] } },
{ "type": "Feature", "properties": { "osm_id": "3313383433", "barrier": "gate", "other_tags": "\"access\"=>\"permissive\",\"operator\"=>\"中国科学技术大学\"" }, "geometry": { "type": "Point", "coordinates": [ 117.2511527, 31.8430588 ] } },
{ "type": "Feature", "properties": { "osm_id": "3313383434", "name": "中科大西区东门", "barrier": "gate", "other_tags": "\"access\"=>\"permissive\",\"name:zh\"=>\"中科大西区东门\",\"name:zh-Hans\"=>\"中科大西区东门\",\"name:zh-Hant\"=>\"中科大西區東門\"" }, "geometry": { "type": "Point", "coordinates": [ 117.254313, 31.8408144 ] } },
{ "type": "Feature", "properties": { "osm_id": "3437129854", "man_made": "flagpole", "other_tags": "\"operator\"=>\"中国科学技术大学\"" }, "geometry": { "type": "Point", "coordinates": [ 117.2513061, 31.8427347 ] } },
{ "type": "Feature", "properties": { "osm_id": "3500203489", "name": "国家高性能计算中心（合肥）", "other_tags": "\"addr:city\"=>\"合肥\",\"addr:street\"=>\"黄山路\",\"name:zh\"=>\"国家高性能计算中心（合肥）\",\"name:zh-Hans\"=>\"国家高性能计算中心（合肥）\",\"name:zh-Hant\"=>\"國家高性能計算中心（合肥）\",\"office\"=>\"research\",\"operator\"=>\"中国科学技术大学\",\"smoking\"=>\"no\",\"wheelchair\"=>\"yes\"" }, "geometry": { "type": "Point", "coordinates": [ 117.2672536, 31.8431388 ] } },
{ "type": "Feature", "properties": { "osm_id": "3500203490", "name": "量子信息实验室", "other_tags": "\"addr:city\"=>\"合肥\",\"addr:street\"=>\"黄山路\",\"name:zh\"=>\"量子信息实验室\",\"name:zh-Hans\"=>\"量子信息实验室\",\"name:zh-Hant\"=>\"量子信息實驗室\",\"office\"=>\"research\",\"operator\"=>\"中国科学技术大学\",\"smoking\"=>\"no\",\"wheelchair\"=>\"yes\"" }, "geometry": { "type": "Point", "coordinates": [ 117.2669532, 31.8429383 ] } },
{ "type": "Feature", "properties": { "osm_id": "3523137479", "name": "校车站", "highway": "bus_stop", "other_tags": "\"bus\"=>\"yes\",\"name:zh\"=>\"校车站\",\"name:zh-Hans\"=>\"校车站\",\"name:zh-Hant\"=>\"校車站\",\"public_transport\"=>\"platform\"" }, "geometry": { "type": "Point", "coordinates": [ 117.2627589, 31.8409648 ] } },
{ "type": "Feature", "properties": { "osm_id": "3642344996", "name": "学生服务部", "other_tags": "\"name:zh\"=>\"学生服务部\",\"name:zh-Hans\"=>\"学生服务部\",\"name:zh-Hant\"=>\"學生服務部\",\"opening_hours\"=>\"7:00-23:30\",\"operator\"=>\"中国科学技术大学\",\"shop\"=>\"convenience\",\"wheelchair\"=>\"yes\"" }, "geometry": { "type": "Point", "coordinates": [ 117.2492432, 31.8426517 ] } },
{ "type": "Feature", "properties": { "osm_id": "3642416670", "name": "中国科学技术大学网络信息中心", "other_tags": "\"addr:city\"=>\"合肥\",\"addr:postcode\"=>\"230026\",\"addr:street\"=>\"金寨路\",\"name:zh\"=>\"中国科学技术大学网络信息中心\",\"name:zh-Hans\"=>\"中国科学技术大学网络信息中心\",\"name:zh-Hant\"=>\"中國科學技術大學網絡信息中心\",\"office\"=>\"research\",\"operator\"=>\"中国科学技术大学\",\"phone\"=>\"+86 551 6360 0661\",\"smoking\"=>\"no\",\"website\"=>\"http://ustcnet.ustc.edu.cn/\",\"wheelchair\"=>\"yes\"" }, "geometry": { "type": "Point", "coordinates": [ 117.2672272, 31.8428879 ] } },
{ "type": "Feature", "properties": { "osm_id": "3642451760", "name": "西区教工食堂", "other_tags": "\"amenity\"=>\"restaurant\",\"fast_food\"=>\"cafeteria\",\"name:zh\"=>\"西区教工食堂\",\"name:zh-Hans\"=>\"西区教工食堂\",\"name:zh-Hant\"=>\"西區教工食堂\",\"smoking\"=>\"no\",\"takeaway\"=>\"no\",\"wheelchair\"=>\"yes\"" }, "geometry": { "type": "Point", "coordinates": [ 117.253971, 31.8403683 ] } },
{ "type": "Feature", "properties": { "osm_id": "3642451761", "name": "西区澡堂", "other_tags": "\"amenity\"=>\"public_bath\",\"name:zh\"=>\"西区澡堂\",\"name:zh-Hans\"=>\"西区澡堂\",\"name:zh-Hant\"=>\"西區澡堂\",\"opening_hours\"=>\"17:00 - 21:00\",\"wheelchair\"=>\"yes\"" }, "geometry": { "type": "Point", "coordinates": [ 117.2491027, 31.8427964 ] } },
{ "type": "Feature", "properties": { "osm_id": "3643521601", "man_made": "flagpole", "other_tags": "\"operator\"=>\"中国科学技术大学\"" }, "geometry": { "type": "Point", "coordinates": [ 117.2637495, 31.8398015 ] } },
{ "type": "Feature", "properties": { "osm_id": "3643576549", "name": "中国科学技术大学同步辐射实验室西门", "barrier": "gate", "other_tags": "\"access\"=>\"destination\",\"bicycle\"=>\"designated\",\"foot\"=>\"designated\",\"horse\"=>\"no\",\"motor_vehicle\"=>\"designated\",\"name:zh\"=>\"中国科学技术大学同步辐射实验室西门\",\"name:zh-Hans\"=>\"中国科学技术大学同步辐射实验室西门\",\"name:zh-Hant\"=>\"中國科學技術大學同步輻射實驗室西門\",\"operator\"=>\"中国科学技术大学\"" }, "geometry": { "type": "Point", "coordinates": [ 117.246285, 31.8370976 ] } },
{ "type": "Feature", "properties": { "osm_id": "3650450263", "name": "江南春酒店", "other_tags": "\"air_conditioning\"=>\"yes\",\"amenity\"=>\"restaurant\",\"name:zh\"=>\"江南春酒店\",\"name:zh-Hans\"=>\"江南春酒店\",\"name:zh-Hant\"=>\"江南春酒店\",\"smoking\"=>\"no\",\"wheelchair\"=>\"yes\"" }, "geometry": { "type": "Point", "coordinates": [ 117.259815, 31.8353391 ] } },
{ "type": "Feature", "properties": { "osm_id": "3650458487", "name": "中国科学技术大学出版社", "other_tags": "\"air_conditioning\"=>\"yes\",\"internet_access\"=>\"yes\",\"internet_access:fee\"=>\"customers\",\"name:zh\"=>\"中国科学技术大学出版社\",\"name:zh-Hans\"=>\"中国科学技术大学出版社\",\"name:zh-Hant\"=>\"中國科學技術大學出版社\",\"operator\"=>\"中国科学技术大学\",\"shop\"=>\"books\",\"wheelchair\"=>\"yes\"" }, "geometry": { "type": "Point", "coordinates": [ 117.2599438, 31.8362232 ] } },
{ "type": "Feature", "properties": { "osm_id": "3694562293", "name": "东区东门", "barrier": "gate", "other_tags": "\"access\"=>\"no\",\"name:zh\"=>\"东区东门\",\"name:zh-Hans\"=>\"东区东门\",\"name:zh-Hant\"=>\"東區東門\"" }, "geometry": { "type": "Point", "coordinates": [ 117.2674805, 31.8427284 ] } },
{ "type": "Feature", "properties": { "osm_id": "3694562294", "other_tags": "\"amenity\"=>\"bicycle_parking\"" }, "geometry": { "type": "Point", "coordinates": [ 117.2483833, 31.8412015 ] } },
{ "type": "Feature", "properties": { "osm_id": "3694562295", "other_tags": "\"amenity\"=>\"waste_basket\"" }, "geometry": { "type": "Point", "coordinates": [ 117.2501472, 31.8430799 ] } },
{ "type": "Feature", "properties": { "osm_id": "3694562296", "name": "中国移动营业厅", "other_tags": "\"name:zh\"=>\"中国移动营业厅\",\"name:zh-Hans\"=>\"中国移动营业厅\",\"name:zh-Hant\"=>\"中國移動營業廳\",\"office\"=>\"telecommunication\"" }, "geometry": { "type": "Point", "coordinates": [ 117.2491045, 31.8429996 ] } },
{ "type": "Feature", "properties": { "osm_id": "3694562297", "other_tags": "\"amenity\"=>\"bicycle_repair_station\"" }, "geometry": { "type": "Point", "coordinates": [ 117.2491842, 31.843089 ] } },
{ "type": "Feature", "properties": { "osm_id": "3694562298", "name": "打印与电子用品店", "other_tags": "\"name:zh\"=>\"打印与电子用品店\",\"name:zh-Hans\"=>\"打印与电子用品店\",\"name:zh-Hant\"=>\"打印與電子用品店\",\"operator\"=>\"中国科学技术大学\",\"shop\"=>\"copyshop\",\"wheelchair\"=>\"yes\"" }, "geometry": { "type": "Point", "coordinates": [ 117.2500539, 31.8426762 ] } },
{ "type": "Feature", "properties": { "osm_id": "3694562299", "other_tags": "\"shop\"=>\"convenience\"" }, "geometry": { "type": "Point", "coordinates": [ 117.2478966, 31.8420274 ] } },
{ "type": "Feature", "properties": { "osm_id": "3694562300", "other_tags": "\"leisure\"=>\"playground\"" }, "geometry": { "type": "Point", "coordinates": [ 117.2491593, 31.8411355 ] } },
{ "type": "Feature", "properties": { "osm_id": "3698121490", "other_tags": "\"amenity\"=>\"waste_basket\"" }, "geometry": { "type": "Point", "coordinates": [ 117.251436, 31.8422746 ] } },
{ "type": "Feature", "properties": { "osm_id": "3698123197", "other_tags": "\"amenity\"=>\"waste_basket\"" }, "geometry": { "type": "Point", "coordinates": [ 117.250162, 31.8425925 ] } },
{ "type": "Feature", "properties": { "osm_id": "3699424813", "other_tags": "\"amenity\"=>\"waste_basket\"" }, "geometry": { "type": "Point", "coordinates": [ 117.254963, 31.840355 ] } },
{ "type": "Feature", "properties": { "osm_id": "3699426012", "other_tags": "\"amenity\"=>\"waste_basket\"" }, "geometry": { "type": "Point", "coordinates": [ 117.2567725, 31.8391698 ] } },
{ "type": "Feature", "properties": { "osm_id": "3699428603", "name": "竹园百货", "other_tags": "\"name:zh\"=>\"竹园百货\",\"name:zh-Hans\"=>\"竹园百货\",\"name:zh-Hant\"=>\"竹園百貨\",\"shop\"=>\"convenience\"" }, "geometry": { "type": "Point", "coordinates": [ 117.2584852, 31.8390728 ] } },
{ "type": "Feature", "properties": { "osm_id": "3699431200", "other_tags": "\"amenity\"=>\"waste_basket\"" }, "geometry": { "type": "Point", "coordinates": [ 117.2596335, 31.8390905 ] } },
{ "type": "Feature", "properties": { "osm_id": "3699436137", "other_tags": "\"amenity\"=>\"waste_basket\"" }, "geometry": { "type": "Point", "coordinates": [ 117.2595966, 31.8399313 ] } },
{ "type": "Feature", "properties": { "osm_id": "3699436213", "name": "老乡鸡", "other_tags": "\"amenity\"=>\"restaurant\",\"brand\"=>\"老乡鸡\",\"brand:en\"=>\"Home Original Chicken\",\"brand:wikidata\"=>\"Q15950134\",\"brand:zh\"=>\"老乡鸡\",\"cuisine\"=>\"chinese\",\"name:en\"=>\"Home Original Chicken\",\"name:zh\"=>\"老乡鸡\"" }, "geometry": { "type": "Point", "coordinates": [ 117.2606414, 31.8402707 ] } },
{ "type": "Feature", "properties": { "osm_id": "3699437066", "other_tags": "\"amenity\"=>\"waste_basket\",\"operator\"=>\"中国科学技术大学\"" }, "geometry": { "type": "Point", "coordinates": [ 117.2621626, 31.8400789 ] } },
{ "type": "Feature", "properties": { "osm_id": "3699437864", "other_tags": "\"amenity\"=>\"waste_basket\",\"operator\"=>\"中国科学技术大学\"" }, "geometry": { "type": "Point", "coordinates": [ 117.2628881, 31.8395864 ] } },
{ "type": "Feature", "properties": { "osm_id": "3699438089", "other_tags": "\"amenity\"=>\"waste_basket\",\"operator\"=>\"中国科学技术大学\"" }, "geometry": { "type": "Point", "coordinates": [ 117.2629582, 31.838738 ] } },
{ "type": "Feature", "properties": { "osm_id": "3699464162", "other_tags": "\"access\"=>\"permissive\",\"amenity\"=>\"bicycle_parking\",\"capacity\"=>\"50\"" }, "geometry": { "type": "Point", "coordinates": [ 117.2539418, 31.8408978 ] } },
{ "type": "Feature", "properties": { "osm_id": "3699464163", "other_tags": "\"amenity\"=>\"bicycle_parking\"" }, "geometry": { "type": "Point", "coordinates": [ 117.2530124, 31.8410968 ] } },
{ "type": "Feature", "properties": { "osm_id": "3699464164", "other_tags": "\"amenity\"=>\"parking\",\"capacity\"=>\"25\",\"parking\"=>\"surface\"" }, "geometry": { "type": "Point", "coordinates": [ 117.2526206, 31.8411202 ] } },
{ "type": "Feature", "properties": { "osm_id": "3699464165", "name": "贝时璋像", "other_tags": "\"artwork_type\"=>\"sculpture\",\"name:zh\"=>\"贝时璋像\",\"name:zh-Hans\"=>\"贝时璋像\",\"name:zh-Hant\"=>\"貝時璋像\",\"tourism\"=>\"artwork\"" }, "geometry": { "type": "Point", "coordinates": [ 117.2532559, 31.8414202 ] } },
{ "type": "Feature", "properties": { "osm_id": "3699464168", "other_tags": "\"shop\"=>\"kiosk\"" }, "geometry": { "type": "Point", "coordinates": [ 117.2547841, 31.8405108 ] } },
{ "type": "Feature", "properties": { "osm_id": "3699464170", "name": "程姐缝衣", "other_tags": "\"name:zh\"=>\"程姐缝衣\",\"name:zh-Hans\"=>\"程姐缝衣\",\"name:zh-Hant\"=>\"程姐縫衣\",\"shop\"=>\"tailor\"" }, "geometry": { "type": "Point", "coordinates": [ 117.2547889, 31.8405075 ] } },
{ "type": "Feature", "properties": { "osm_id": "3699464171", "other_tags": "\"amenity\"=>\"bicycle_repair_station\"" }, "geometry": { "type": "Point", "coordinates": [ 117.2547624, 31.8405308 ] } },
{ "type": "Feature", "properties": { "osm_id": "3699464172", "name": "安徽省电影发行放映总公司", "other_tags": "\"name:zh\"=>\"安徽省电影发行放映总公司\",\"name:zh-Hans\"=>\"安徽省电影发行放映总公司\",\"name:zh-Hant\"=>\"安徽省電影發行放映總公司\",\"office\"=>\"company\"" }, "geometry": { "type": "Point", "coordinates": [ 117.254667, 31.8408433 ] } },
{ "type": "Feature", "properties": { "osm_id": "3699464173", "name": "蜀山区稻香村街道黄山路社区工作站", "other_tags": "\"name:zh\"=>\"蜀山区稻香村街道黄山路社区工作站\",\"name:zh-Hans\"=>\"蜀山区稻香村街道黄山路社区工作站\",\"name:zh-Hant\"=>\"蜀山區稻香村街道黃山路社區工作站\",\"office\"=>\"government\"" }, "geometry": { "type": "Point", "coordinates": [ 117.2546726, 31.8408364 ] } },
{ "type": "Feature", "properties": { "osm_id": "3699464174", "name": "中共蜀山区稻香村街道黄山路社区委员会", "other_tags": "\"name:zh\"=>\"中共蜀山区稻香村街道黄山路社区委员会\",\"name:zh-Hans\"=>\"中共蜀山区稻香村街道黄山路社区委员会\",\"name:zh-Hant\"=>\"中共蜀山區稻香村街道黃山路社區委員會\",\"office\"=>\"political_party\"" }, "geometry": { "type": "Point", "coordinates": [ 117.2546667, 31.8408372 ] } },
{ "type": "Feature", "properties": { "osm_id": "3699464175", "name": "蜀山区稻香村街道黄山路社区居民委员会", "other_tags": "\"name:zh\"=>\"蜀山区稻香村街道黄山路社区居民委员会\",\"name:zh-Hans\"=>\"蜀山区稻香村街道黄山路社区居民委员会\",\"name:zh-Hant\"=>\"蜀山區稻香村街道黃山路社區居民委員會\",\"office\"=>\"government\"" }, "geometry": { "type": "Point", "coordinates": [ 117.2546689, 31.8408293 ] } },
{ "type": "Feature", "properties": { "osm_id": "3699464176", "name": "环球烟酒商行", "other_tags": "\"name:zh\"=>\"环球烟酒商行\",\"name:zh-Hans\"=>\"环球烟酒商行\",\"name:zh-Hant\"=>\"環球菸酒商行\",\"shop\"=>\"convenience\"" }, "geometry": { "type": "Point", "coordinates": [ 117.2546499, 31.8409054 ] } },
{ "type": "Feature", "properties": { "osm_id": "3699464177", "name": "马氏烧烤", "other_tags": "\"amenity\"=>\"restaurant\",\"name:zh\"=>\"马氏烧烤\",\"name:zh-Hans\"=>\"马氏烧烤\",\"name:zh-Hant\"=>\"馬氏燒烤\"" }, "geometry": { "type": "Point", "coordinates": [ 117.2546256, 31.8409836 ] } },
{ "type": "Feature", "properties": { "osm_id": "3699464178", "name": "沙县小吃", "other_tags": "\"amenity\"=>\"restaurant\",\"cuisine\"=>\"chinese\",\"name:zh\"=>\"沙县小吃\",\"name:zh-Hans\"=>\"沙县小吃\",\"name:zh-Hant\"=>\"沙縣小吃\"" }, "geometry": { "type": "Point", "coordinates": [ 117.2546248, 31.8410171 ] } },
{ "type": "Feature", "properties": { "osm_id": "3699464179", "name": "重庆火山鱼火锅", "other_tags": "\"amenity\"=>\"restaurant\",\"cuisine\"=>\"chinese\",\"name:zh\"=>\"重庆火山鱼火锅\",\"name:zh-Hans\"=>\"重庆火山鱼火锅\",\"name:zh-Hant\"=>\"重慶火山魚火鍋\"" }, "geometry": { "type": "Point", "coordinates": [ 117.2546365, 31.8410572 ] } },
{ "type": "Feature", "properties": { "osm_id": "3699464180", "name": "百富缘宾馆", "other_tags": "\"name:zh\"=>\"百富缘宾馆\",\"name:zh-Hans\"=>\"百富缘宾馆\",\"name:zh-Hant\"=>\"百富緣賓館\",\"tourism\"=>\"hotel\"" }, "geometry": { "type": "Point", "coordinates": [ 117.2546421, 31.8410827 ] } },
{ "type": "Feature", "properties": { "osm_id": "3699464181", "name": "老重庆川菜馆", "other_tags": "\"amenity\"=>\"restaurant\",\"cuisine\"=>\"chinese\",\"name:zh\"=>\"老重庆川菜馆\",\"name:zh-Hans\"=>\"老重庆川菜馆\",\"name:zh-Hant\"=>\"老重慶川菜館\"" }, "geometry": { "type": "Point", "coordinates": [ 117.2546496, 31.8411204 ] } },
{ "type": "Feature", "properties": { "osm_id": "3699464182", "name": "云南过桥米线", "other_tags": "\"amenity\"=>\"restaurant\",\"name:zh\"=>\"云南过桥米线\",\"name:zh-Hans\"=>\"云南过桥米线\",\"name:zh-Hant\"=>\"雲南過橋米線\"" }, "geometry": { "type": "Point", "coordinates": [ 117.2546597, 31.8411482 ] } },
{ "type": "Feature", "properties": { "osm_id": "3699464183", "name": "穆斯林餐馆", "other_tags": "\"amenity\"=>\"restaurant\",\"name:zh\"=>\"穆斯林餐馆\",\"name:zh-Hans\"=>\"穆斯林餐馆\",\"name:zh-Hant\"=>\"穆斯林餐館\"" }, "geometry": { "type": "Point", "coordinates": [ 117.254668, 31.8411788 ] } },
{ "type": "Feature", "properties": { "osm_id": "3699464184", "barrier": "gate", "other_tags": "\"access\"=>\"destination\"" }, "geometry": { "type": "Point", "coordinates": [ 117.2562648, 31.8394696 ] } },
{ "type": "Feature", "properties": { "osm_id": "3699813186", "name": "王仁和米线", "other_tags": "\"amenity\"=>\"restaurant\",\"name:zh\"=>\"王仁和米线\",\"name:zh-Hans\"=>\"王仁和米线\",\"name:zh-Hant\"=>\"王仁和米線\"" }, "geometry": { "type": "Point", "coordinates": [ 117.2623851, 31.8434966 ] } },
{ "type": "Feature", "properties": { "osm_id": "3699813188", "name": "老乡鸡", "other_tags": "\"amenity\"=>\"restaurant\",\"brand\"=>\"老乡鸡\",\"brand:en\"=>\"Home Original Chicken\",\"brand:wikidata\"=>\"Q15950134\",\"brand:zh\"=>\"老乡鸡\",\"cuisine\"=>\"chinese\",\"name:en\"=>\"Home Original Chicken\",\"name:zh\"=>\"老乡鸡\"" }, "geometry": { "type": "Point", "coordinates": [ 117.261271, 31.8433379 ] } },
{ "type": "Feature", "properties": { "osm_id": "3699813189", "name": "中国农业银行", "other_tags": "\"amenity\"=>\"bank\",\"brand\"=>\"中国农业银行\",\"brand:en\"=>\"Agricultural Bank of China\",\"brand:wikidata\"=>\"Q26298\",\"brand:wikipedia\"=>\"en:Agricultural Bank of China\",\"brand:zh\"=>\"中国农业银行\",\"name:en\"=>\"Agricultural Bank of China\",\"name:zh\"=>\"中国农业银行\"" }, "geometry": { "type": "Point", "coordinates": [ 117.2588704, 31.8432494 ] } },
{ "type": "Feature", "properties": { "osm_id": "3699813191", "name": "大嫂水饺", "other_tags": "\"amenity\"=>\"restaurant\",\"cuisine\"=>\"dumplings\",\"name:zh\"=>\"大嫂水饺\",\"name:zh-Hans\"=>\"大嫂水饺\",\"name:zh-Hant\"=>\"大嫂水餃\"" }, "geometry": { "type": "Point", "coordinates": [ 117.255566, 31.8432864 ] } },
{ "type": "Feature", "properties": { "osm_id": "3699813201", "name": "中国联通黄山路营业厅", "other_tags": "\"name:zh\"=>\"中国联通黄山路营业厅\",\"name:zh-Hans\"=>\"中国联通黄山路营业厅\",\"name:zh-Hant\"=>\"中國聯通黃山路營業廳\",\"office\"=>\"telecommunication\"" }, "geometry": { "type": "Point", "coordinates": [ 117.2550506, 31.8432453 ] } },
{ "type": "Feature", "properties": { "osm_id": "3699813432", "name": "东亚快餐", "other_tags": "\"amenity\"=>\"fast_food\",\"name:zh\"=>\"东亚快餐\",\"name:zh-Hans\"=>\"东亚快餐\",\"name:zh-Hant\"=>\"東亞快餐\"" }, "geometry": { "type": "Point", "coordinates": [ 117.2625058, 31.8435091 ] } },
{ "type": "Feature", "properties": { "osm_id": "3699813434", "name": "中国科学技术大学西", "highway": "bus_stop", "other_tags": "\"bus\"=>\"yes\",\"name:zh\"=>\"中国科学技术大学西\",\"name:zh-Hans\"=>\"中国科学技术大学西\",\"name:zh-Hant\"=>\"中國科學技術大學西\",\"public_transport\"=>\"platform\"" }, "geometry": { "type": "Point", "coordinates": [ 117.2612147, 31.8435407 ] } },
{ "type": "Feature", "properties": { "osm_id": "3699813435", "name": "冠厨食府", "other_tags": "\"amenity\"=>\"restaurant\",\"name:zh\"=>\"冠厨食府\",\"name:zh-Hans\"=>\"冠厨食府\",\"name:zh-Hant\"=>\"冠廚食府\",\"smoking\"=>\"no\",\"wheelchair\"=>\"yes\"" }, "geometry": { "type": "Point", "coordinates": [ 117.2591673, 31.843262 ] } },
{ "type": "Feature", "properties": { "osm_id": "3699813534", "name": "天庭商务酒店", "other_tags": "\"brand\"=>\"天庭商务酒店\",\"name:zh\"=>\"天庭商务酒店\",\"name:zh-Hans\"=>\"天庭商务酒店\",\"name:zh-Hant\"=>\"天庭商務酒店\",\"tourism\"=>\"hotel\"" }, "geometry": { "type": "Point", "coordinates": [ 117.2628085, 31.8434082 ] } },
{ "type": "Feature", "properties": { "osm_id": "3699813536", "name": "兴业银行", "other_tags": "\"amenity\"=>\"bank\",\"brand\"=>\"兴业银行\",\"brand:en\"=>\"Industrial Bank\",\"brand:wikidata\"=>\"Q1410821\",\"brand:wikipedia\"=>\"zh:兴业银行\",\"brand:zh\"=>\"兴业银行\",\"name:en\"=>\"Industrial Bank\",\"name:zh\"=>\"兴业银行\"" }, "geometry": { "type": "Point", "coordinates": [ 117.2606201, 31.8432612 ] } },
{ "type": "Feature", "properties": { "osm_id": "3699813537", "name": "中国外运安徽有限公司", "other_tags": "\"name:zh\"=>\"中国外运安徽有限公司\",\"name:zh-Hans\"=>\"中国外运安徽有限公司\",\"name:zh-Hant\"=>\"中國外運安徽有限公司\",\"office\"=>\"company\"" }, "geometry": { "type": "Point", "coordinates": [ 117.2580013, 31.843294 ] } },
{ "type": "Feature", "properties": { "osm_id": "3699813538", "name": "稻香村", "highway": "bus_stop", "ref": "8;10;16;103;108;111;118", "other_tags": "\"bus\"=>\"yes\",\"name:en\"=>\"Daoxiangcun\",\"name:zh\"=>\"稻香村\",\"name:zh-Hans\"=>\"稻香村\",\"name:zh-Hant\"=>\"稻香村\",\"network\"=>\"CN_HFBUS\",\"public_transport\"=>\"platform\"" }, "geometry": { "type": "Point", "coordinates": [ 117.256306, 31.8434186 ] } },
{ "type": "Feature", "properties": { "osm_id": "3699813539", "name": "贾不假包子", "other_tags": "\"amenity\"=>\"restaurant\",\"name:zh\"=>\"贾不假包子\",\"name:zh-Hans\"=>\"贾不假包子\",\"name:zh-Hant\"=>\"賈不假包子\"" }, "geometry": { "type": "Point", "coordinates": [ 117.2559992, 31.843334 ] } },
{ "type": "Feature", "properties": { "osm_id": "3699813540", "name": "柒加壹商务酒店", "other_tags": "\"brand\"=>\"柒加壹商务酒店\",\"name:zh\"=>\"柒加壹商务酒店\",\"name:zh-Hans\"=>\"柒加壹商务酒店\",\"name:zh-Hant\"=>\"柒加壹商務酒店\",\"tourism\"=>\"hotel\"" }, "geometry": { "type": "Point", "coordinates": [ 117.2554051, 31.8432841 ] } },
{ "type": "Feature", "properties": { "osm_id": "3702249634", "name": "联想客户服务中心", "other_tags": "\"name:zh\"=>\"联想客户服务中心\",\"name:zh-Hans\"=>\"联想客户服务中心\",\"name:zh-Hant\"=>\"聯想客戶服務中心\",\"office\"=>\"it\",\"opening_hours\"=>\"Mo-Su 08:00-18:00\"" }, "geometry": { "type": "Point", "coordinates": [ 117.2628646, 31.8422979 ] } },
{ "type": "Feature", "properties": { "osm_id": "3714941409", "name": "安徽大学（龙河校区）南门", "barrier": "gate", "other_tags": "\"foot\"=>\"permissive\",\"horse\"=>\"private\",\"motor_vehicle\"=>\"designated\",\"name:zh\"=>\"安徽大学（龙河校区）南门\",\"name:zh-Hans\"=>\"安徽大学（龙河校区）南门\",\"name:zh-Hant\"=>\"安徽大學（龍河校區）南門\"" }, "geometry": { "type": "Point", "coordinates": [ 117.2487728, 31.8437094 ] } },
{ "type": "Feature", "properties": { "osm_id": "3727507020", "name": "机研所", "highway": "bus_stop", "other_tags": "\"bus\"=>\"yes\",\"name:en\"=>\"Machinery Research Institute\",\"name:zh\"=>\"机研所\",\"name:zh-Hans\"=>\"机研所\",\"name:zh-Hant\"=>\"機研所\",\"public_transport\"=>\"platform\"" }, "geometry": { "type": "Point", "coordinates": [ 117.2594748, 31.8372426 ] } },
{ "type": "Feature", "properties": { "osm_id": "3732911005", "name": "占断群芳", "other_tags": "\"amenity\"=>\"shelter\",\"name:zh\"=>\"占断群芳\",\"name:zh-Hans\"=>\"占断群芳\",\"name:zh-Hant\"=>\"佔斷群芳\",\"operator\"=>\"中国科学技术大学\",\"wheelchair\"=>\"yes\"" }, "geometry": { "type": "Point", "coordinates": [ 117.2646272, 31.8407697 ] } },
{ "type": "Feature", "properties": { "osm_id": "3761443724", "name": "合肥科技馆", "highway": "bus_stop", "other_tags": "\"bench\"=>\"yes\",\"bus\"=>\"yes\",\"name:en\"=>\"Hefei Science and Technology Museum\",\"name:zh\"=>\"合肥科技馆\",\"name:zh-Hans\"=>\"合肥科技馆\",\"name:zh-Hant\"=>\"合肥科技館\",\"public_transport\"=>\"platform\"" }, "geometry": { "type": "Point", "coordinates": [ 117.2474844, 31.843217 ] } },
{ "type": "Feature", "properties": { "osm_id": "3765014177", "name": "合肥科技馆", "highway": "bus_stop", "other_tags": "\"bus\"=>\"yes\",\"name:en\"=>\"Hefei Science and Technology Museum\",\"name:zh\"=>\"合肥科技馆\",\"name:zh-Hans\"=>\"合肥科技馆\",\"name:zh-Hant\"=>\"合肥科技館\",\"public_transport\"=>\"platform\"" }, "geometry": { "type": "Point", "coordinates": [ 117.2461824, 31.8414212 ] } },
{ "type": "Feature", "properties": { "osm_id": "3868586299", "name": "包小白餐厅", "other_tags": "\"amenity\"=>\"restaurant\",\"cuisine\"=>\"包子\",\"name:zh\"=>\"包小白餐厅\",\"name:zh-Hans\"=>\"包小白餐厅\",\"name:zh-Hant\"=>\"包小白餐廳\"" }, "geometry": { "type": "Point", "coordinates": [ 117.2620942, 31.843521 ] } },
{ "type": "Feature", "properties": { "osm_id": "4156799791", "other_tags": "\"access\"=>\"yes\",\"amenity\"=>\"toilets\",\"drinking_water\"=>\"no\",\"fee\"=>\"no\",\"female\"=>\"yes\",\"male\"=>\"yes\",\"wheelchair\"=>\"no\"" }, "geometry": { "type": "Point", "coordinates": [ 117.248031, 31.8411923 ] } },
{ "type": "Feature", "properties": { "osm_id": "4157378724", "other_tags": "\"access\"=>\"private\",\"amenity\"=>\"bicycle_parking\",\"fee\"=>\"no\",\"smoothness\"=>\"intermediate\",\"surface\"=>\"ground\"" }, "geometry": { "type": "Point", "coordinates": [ 117.2496123, 31.8429692 ] } },
{ "type": "Feature", "properties": { "osm_id": "4157378976", "other_tags": "\"amenity\"=>\"toilets\",\"male\"=>\"yes\"" }, "geometry": { "type": "Point", "coordinates": [ 117.24945, 31.8427987 ] } },
{ "type": "Feature", "properties": { "osm_id": "4157378977", "other_tags": "\"amenity\"=>\"toilets\",\"male\"=>\"yes\"" }, "geometry": { "type": "Point", "coordinates": [ 117.2498724, 31.8428112 ] } },
{ "type": "Feature", "properties": { "osm_id": "4157403522", "other_tags": "\"entrance\"=>\"yes\"" }, "geometry": { "type": "Point", "coordinates": [ 117.2489773, 31.8401058 ] } },
{ "type": "Feature", "properties": { "osm_id": "4157403523", "other_tags": "\"amenity\"=>\"toilets\",\"female\"=>\"yes\",\"male\"=>\"yes\"" }, "geometry": { "type": "Point", "coordinates": [ 117.2498382, 31.8406321 ] } },
{ "type": "Feature", "properties": { "osm_id": "4157403525", "other_tags": "\"access\"=>\"private\",\"amenity\"=>\"toilets\",\"male\"=>\"yes\"" }, "geometry": { "type": "Point", "coordinates": [ 117.2516447, 31.8413425 ] } },
{ "type": "Feature", "properties": { "osm_id": "4157430590", "name": "中国电信", "other_tags": "\"brand\"=>\"中国电信\",\"brand:en\"=>\"China Telecom\",\"brand:wikidata\"=>\"Q1073540\",\"brand:zh\"=>\"中国电信\",\"name:en\"=>\"China Telecom\",\"name:zh\"=>\"中国电信\",\"opening_hours\"=>\"sunrise-sunset\",\"shop\"=>\"telecommunication\",\"wheelchair\"=>\"yes\"" }, "geometry": { "type": "Point", "coordinates": [ 117.2499678, 31.843003 ] } },
{ "type": "Feature", "properties": { "osm_id": "4157430591", "name": "中通快递", "other_tags": "\"name:zh\"=>\"中通快递\",\"name:zh-Hans\"=>\"中通快递\",\"name:zh-Hant\"=>\"中通快遞\",\"tourism\"=>\"information\"" }, "geometry": { "type": "Point", "coordinates": [ 117.254276, 31.8407888 ] } },
{ "type": "Feature", "properties": { "osm_id": "4157430592", "name": "申通快递", "other_tags": "\"information\"=>\"office\",\"name:zh\"=>\"申通快递\",\"name:zh-Hans\"=>\"申通快递\",\"name:zh-Hant\"=>\"申通快遞\",\"tourism\"=>\"information\"" }, "geometry": { "type": "Point", "coordinates": [ 117.2509924, 31.8431358 ] } },
{ "type": "Feature", "properties": { "osm_id": "4157430593", "name": "韵达快递", "man_made": "flagpole", "other_tags": "\"name:zh\"=>\"韵达快递\",\"name:zh-Hans\"=>\"韵达快递\",\"name:zh-Hant\"=>\"韻達快遞\"" }, "geometry": { "type": "Point", "coordinates": [ 117.2542289, 31.8408027 ] } },
{ "type": "Feature", "properties": { "osm_id": "4157431289", "name": "圆通快递", "other_tags": "\"name:zh\"=>\"圆通快递\",\"name:zh-Hans\"=>\"圆通快递\",\"name:zh-Hant\"=>\"圓通快遞\",\"tourism\"=>\"information\"" }, "geometry": { "type": "Point", "coordinates": [ 117.2543053, 31.8409527 ] } },
{ "type": "Feature", "properties": { "osm_id": "4157431290", "other_tags": "\"entrance\"=>\"yes\"" }, "geometry": { "type": "Point", "coordinates": [ 117.2483551, 31.8420352 ] } },
{ "type": "Feature", "properties": { "osm_id": "4157431489", "other_tags": "\"access\"=>\"delivery\",\"entrance\"=>\"yes\",\"wheelchair\"=>\"limited\"" }, "geometry": { "type": "Point", "coordinates": [ 117.2494546, 31.8426587 ] } },
{ "type": "Feature", "properties": { "osm_id": "4157431689", "other_tags": "\"access\"=>\"delivery\",\"entrance\"=>\"yes\",\"wheelchair\"=>\"limited\"" }, "geometry": { "type": "Point", "coordinates": [ 117.2494532, 31.8429721 ] } },
{ "type": "Feature", "properties": { "osm_id": "4157449217", "other_tags": "\"access\"=>\"private\",\"amenity\"=>\"toilets\",\"female\"=>\"yes\",\"male\"=>\"yes\",\"operator\"=>\"中国科学技术大学\"" }, "geometry": { "type": "Point", "coordinates": [ 117.260973, 31.8379157 ] } },
{ "type": "Feature", "properties": { "osm_id": "4157449218", "other_tags": "\"entrance\"=>\"yes\"" }, "geometry": { "type": "Point", "coordinates": [ 117.2490393, 31.8403332 ] } },
{ "type": "Feature", "properties": { "osm_id": "4157464014", "other_tags": "\"amenity\"=>\"toilets\",\"male\"=>\"yes\"" }, "geometry": { "type": "Point", "coordinates": [ 117.2490749, 31.8401119 ] } },
{ "type": "Feature", "properties": { "osm_id": "4157464015", "other_tags": "\"entrance\"=>\"yes\"" }, "geometry": { "type": "Point", "coordinates": [ 117.2490371, 31.8402715 ] } },
{ "type": "Feature", "properties": { "osm_id": "4157464021", "other_tags": "\"amenity\"=>\"toilets\",\"male\"=>\"yes\"" }, "geometry": { "type": "Point", "coordinates": [ 117.2487729, 31.842183 ] } },
{ "type": "Feature", "properties": { "osm_id": "4157496009", "other_tags": "\"amenity\"=>\"toilets\",\"male\"=>\"yes\"" }, "geometry": { "type": "Point", "coordinates": [ 117.2483497, 31.8421707 ] } },
{ "type": "Feature", "properties": { "osm_id": "4157496613", "other_tags": "\"entrance\"=>\"yes\"" }, "geometry": { "type": "Point", "coordinates": [ 117.2489741, 31.8398794 ] } },
{ "type": "Feature", "properties": { "osm_id": "4157496614", "other_tags": "\"amenity\"=>\"toilets\",\"female\"=>\"yes\"" }, "geometry": { "type": "Point", "coordinates": [ 117.2491322, 31.8402277 ] } },
{ "type": "Feature", "properties": { "osm_id": "4157496616", "other_tags": "\"entrance\"=>\"yes\"" }, "geometry": { "type": "Point", "coordinates": [ 117.2490986, 31.8403591 ] } },
{ "type": "Feature", "properties": { "osm_id": "4157496617", "other_tags": "\"access\"=>\"private\",\"amenity\"=>\"toilets\",\"female\"=>\"yes\",\"male\"=>\"yes\",\"operator\"=>\"中国科学技术大学\"" }, "geometry": { "type": "Point", "coordinates": [ 117.2649256, 31.8404717 ] } },
{ "type": "Feature", "properties": { "osm_id": "4157496802", "other_tags": "\"entrance\"=>\"yes\"" }, "geometry": { "type": "Point", "coordinates": [ 117.2489772, 31.8400477 ] } },
{ "type": "Feature", "properties": { "osm_id": "4157497197", "other_tags": "\"entrance\"=>\"yes\"" }, "geometry": { "type": "Point", "coordinates": [ 117.2489728, 31.8398176 ] } },
{ "type": "Feature", "properties": { "osm_id": "4157497200", "other_tags": "\"amenity\"=>\"toilets\",\"male\"=>\"yes\"" }, "geometry": { "type": "Point", "coordinates": [ 117.2493804, 31.8405034 ] } },
{ "type": "Feature", "properties": { "osm_id": "4157500389", "other_tags": "\"access\"=>\"private\",\"amenity\"=>\"bicycle_parking\",\"fee\"=>\"no\",\"smoothness\"=>\"intermediate\",\"surface\"=>\"ground\"" }, "geometry": { "type": "Point", "coordinates": [ 117.2496699, 31.8426626 ] } },
{ "type": "Feature", "properties": { "osm_id": "4157500390", "other_tags": "\"amenity\"=>\"toilets\",\"male\"=>\"yes\"" }, "geometry": { "type": "Point", "coordinates": [ 117.2494441, 31.8431152 ] } },
{ "type": "Feature", "properties": { "osm_id": "4157500391", "other_tags": "\"amenity\"=>\"toilets\",\"male\"=>\"yes\"" }, "geometry": { "type": "Point", "coordinates": [ 117.2498636, 31.8431227 ] } },
{ "type": "Feature", "properties": { "osm_id": "4158854589", "other_tags": "\"internet_access\"=>\"wlan\",\"internet_access:fee\"=>\"yes\"" }, "geometry": { "type": "Point", "coordinates": [ 117.2488758, 31.8398507 ] } },
{ "type": "Feature", "properties": { "osm_id": "4158854590", "other_tags": "\"internet_access\"=>\"wlan\",\"internet_access:fee\"=>\"yes\"" }, "geometry": { "type": "Point", "coordinates": [ 117.2488618, 31.8400776 ] } },
{ "type": "Feature", "properties": { "osm_id": "4158854591", "other_tags": "\"internet_access\"=>\"wlan\",\"internet_access:fee\"=>\"yes\"" }, "geometry": { "type": "Point", "coordinates": [ 117.249434, 31.8400997 ] } },
{ "type": "Feature", "properties": { "osm_id": "4158854592", "other_tags": "\"internet_access\"=>\"wlan\",\"internet_access:fee\"=>\"yes\"" }, "geometry": { "type": "Point", "coordinates": [ 117.2510471, 31.8400997 ] } },
{ "type": "Feature", "properties": { "osm_id": "4158854593", "other_tags": "\"internet_access\"=>\"wlan\",\"internet_access:fee\"=>\"yes\"" }, "geometry": { "type": "Point", "coordinates": [ 117.2518925, 31.8402826 ] } },
{ "type": "Feature", "properties": { "osm_id": "4158854594", "other_tags": "\"internet_access\"=>\"wlan\",\"internet_access:fee\"=>\"yes\"" }, "geometry": { "type": "Point", "coordinates": [ 117.2496374, 31.8402911 ] } },
{ "type": "Feature", "properties": { "osm_id": "4158854595", "other_tags": "\"internet_access\"=>\"wlan\",\"internet_access:fee\"=>\"yes\"" }, "geometry": { "type": "Point", "coordinates": [ 117.2489416, 31.8402995 ] } },
{ "type": "Feature", "properties": { "osm_id": "4158854596", "other_tags": "\"internet_access\"=>\"wlan\",\"internet_access:fee\"=>\"yes\"" }, "geometry": { "type": "Point", "coordinates": [ 117.2492905, 31.8404232 ] } },
{ "type": "Feature", "properties": { "osm_id": "4158854597", "other_tags": "\"internet_access\"=>\"wlan\",\"internet_access:fee\"=>\"yes\"" }, "geometry": { "type": "Point", "coordinates": [ 117.2503452, 31.8404469 ] } },
{ "type": "Feature", "properties": { "osm_id": "4158854598", "other_tags": "\"internet_access\"=>\"wlan\",\"internet_access:fee\"=>\"yes\"" }, "geometry": { "type": "Point", "coordinates": [ 117.249775, 31.8405942 ] } },
{ "type": "Feature", "properties": { "osm_id": "4158854599", "other_tags": "\"internet_access\"=>\"wlan\",\"internet_access:fee\"=>\"yes\"" }, "geometry": { "type": "Point", "coordinates": [ 117.2492925, 31.8405993 ] } },
{ "type": "Feature", "properties": { "osm_id": "4158854600", "other_tags": "\"internet_access\"=>\"wlan\",\"internet_access:fee\"=>\"yes\"" }, "geometry": { "type": "Point", "coordinates": [ 117.2484471, 31.8406603 ] } },
{ "type": "Feature", "properties": { "osm_id": "4158854601", "other_tags": "\"internet_access\"=>\"wlan\",\"internet_access:fee\"=>\"yes\"" }, "geometry": { "type": "Point", "coordinates": [ 117.2519343, 31.8410363 ] } },
{ "type": "Feature", "properties": { "osm_id": "4158854602", "other_tags": "\"internet_access\"=>\"wlan\",\"internet_access:fee\"=>\"yes\"" }, "geometry": { "type": "Point", "coordinates": [ 117.2516891, 31.8413903 ] } },
{ "type": "Feature", "properties": { "osm_id": "4158854603", "other_tags": "\"internet_access\"=>\"wlan\",\"internet_access:fee\"=>\"yes\"" }, "geometry": { "type": "Point", "coordinates": [ 117.253681, 31.8414378 ] } },
{ "type": "Feature", "properties": { "osm_id": "4158854605", "other_tags": "\"internet_access\"=>\"wlan\",\"internet_access:fee\"=>\"yes\"" }, "geometry": { "type": "Point", "coordinates": [ 117.2479945, 31.8416444 ] } },
{ "type": "Feature", "properties": { "osm_id": "4158854606", "other_tags": "\"internet_access\"=>\"wlan\",\"internet_access:fee\"=>\"yes\"" }, "geometry": { "type": "Point", "coordinates": [ 117.2483534, 31.8418341 ] } },
{ "type": "Feature", "properties": { "osm_id": "4158854607", "other_tags": "\"internet_access\"=>\"wlan\",\"internet_access:fee\"=>\"yes\"" }, "geometry": { "type": "Point", "coordinates": [ 117.2481341, 31.8421034 ] } },
{ "type": "Feature", "properties": { "osm_id": "4158854608", "other_tags": "\"internet_access\"=>\"wlan\",\"internet_access:fee\"=>\"yes\"" }, "geometry": { "type": "Point", "coordinates": [ 117.2489854, 31.8421051 ] } },
{ "type": "Feature", "properties": { "osm_id": "4158854609", "other_tags": "\"internet_access\"=>\"wlan\",\"internet_access:fee\"=>\"yes\"" }, "geometry": { "type": "Point", "coordinates": [ 117.2491619, 31.8423257 ] } },
{ "type": "Feature", "properties": { "osm_id": "4158854610", "other_tags": "\"internet_access\"=>\"wlan\",\"internet_access:fee\"=>\"yes\"" }, "geometry": { "type": "Point", "coordinates": [ 117.2501419, 31.8424202 ] } },
{ "type": "Feature", "properties": { "osm_id": "4158854611", "other_tags": "\"internet_access\"=>\"wlan\",\"internet_access:fee\"=>\"yes\"" }, "geometry": { "type": "Point", "coordinates": [ 117.2483294, 31.8424845 ] } },
{ "type": "Feature", "properties": { "osm_id": "4158854612", "other_tags": "\"internet_access\"=>\"wlan\",\"internet_access:fee\"=>\"yes\"" }, "geometry": { "type": "Point", "coordinates": [ 117.2485089, 31.8426539 ] } },
{ "type": "Feature", "properties": { "osm_id": "4158854613", "other_tags": "\"internet_access\"=>\"wlan\",\"internet_access:fee\"=>\"yes\"" }, "geometry": { "type": "Point", "coordinates": [ 117.2492217, 31.8427001 ] } },
{ "type": "Feature", "properties": { "osm_id": "4158854614", "other_tags": "\"internet_access\"=>\"wlan\"" }, "geometry": { "type": "Point", "coordinates": [ 117.2500855, 31.8427253 ] } },
{ "type": "Feature", "properties": { "osm_id": "4158854615", "other_tags": "\"internet_access\"=>\"wlan\",\"internet_access:fee\"=>\"yes\"" }, "geometry": { "type": "Point", "coordinates": [ 117.2482896, 31.8427471 ] } },
{ "type": "Feature", "properties": { "osm_id": "4158854616", "other_tags": "\"internet_access\"=>\"wlan\",\"internet_access:fee\"=>\"yes\"" }, "geometry": { "type": "Point", "coordinates": [ 117.2486764, 31.8428436 ] } },
{ "type": "Feature", "properties": { "osm_id": "4158854617", "other_tags": "\"internet_access\"=>\"wlan\",\"internet_access:fee\"=>\"customers\"" }, "geometry": { "type": "Point", "coordinates": [ 117.2492067, 31.8430287 ] } },
{ "type": "Feature", "properties": { "osm_id": "4158854618", "other_tags": "\"internet_access\"=>\"wlan\",\"internet_access:fee\"=>\"customers\"" }, "geometry": { "type": "Point", "coordinates": [ 117.2500722, 31.8430248 ] } },
{ "type": "Feature", "properties": { "osm_id": "4260868410", "name": "合作化南路", "place": "neighbourhood", "other_tags": "\"capital\"=>\"10\",\"name:en\"=>\"Hezuohuananlu\",\"place:CN\"=>\"neighbourhood\"" }, "geometry": { "type": "Point", "coordinates": [ 117.2478932, 31.8359145 ] } },
{ "type": "Feature", "properties": { "osm_id": "4260868412", "name": "朝阳", "place": "neighbourhood", "other_tags": "\"capital\"=>\"10\",\"name:en\"=>\"Chaoyang\",\"name:zh\"=>\"朝阳\",\"name:zh-Hans\"=>\"朝阳\",\"name:zh-Hant\"=>\"朝陽\",\"place:CN\"=>\"neighbourhood\"" }, "geometry": { "type": "Point", "coordinates": [ 117.2555363, 31.8394926 ] } },
{ "type": "Feature", "properties": { "osm_id": "4265484314", "name": "曙光", "place": "neighbourhood", "other_tags": "\"capital\"=>\"10\",\"name:en\"=>\"Shuguang\",\"name:zh\"=>\"曙光\",\"name:zh-Hans\"=>\"曙光\",\"name:zh-Hant\"=>\"曙光\",\"place:CN\"=>\"neighbourhood\"" }, "geometry": { "type": "Point", "coordinates": [ 117.26738, 31.8368316 ] } },
{ "type": "Feature", "properties": { "osm_id": "4415899590", "name": "Fabio's Pizzeria Bar", "other_tags": "\"amenity\"=>\"restaurant\",\"name:en\"=>\"Fabio's Pizzeria Bar\"" }, "geometry": { "type": "Point", "coordinates": [ 117.261774, 31.8409448 ] } },
{ "type": "Feature", "properties": { "osm_id": "4551601602", "name": "京东派快递提取点", "other_tags": "\"name:zh\"=>\"京东派快递提取点\",\"name:zh-Hans\"=>\"京东派快递提取点\",\"name:zh-Hant\"=>\"京東派快遞提取點\",\"tourism\"=>\"information\"" }, "geometry": { "type": "Point", "coordinates": [ 117.2540481, 31.8404892 ] } },
{ "type": "Feature", "properties": { "osm_id": "4551601603", "name": "中科大Linux用户协会", "other_tags": "\"addr:city\"=>\"合肥\",\"addr:housenumber\"=>\"206\",\"addr:postcode\"=>\"230027\",\"addr:street\"=>\"West Library, USTC\",\"amenity\"=>\"internet_cafe\",\"club\"=>\"linux\",\"internet_access\"=>\"wlan hotspot indoor\",\"internet_access:fee\"=>\"no\",\"name:en\"=>\"USTC Linux User Group\",\"name:zh\"=>\"中科大Linux用户协会\",\"name:zh-Hans\"=>\"中科大Linux用户协会\",\"name:zh-Hant\"=>\"中科大Linux用戶協會\",\"smoking\"=>\"no\"" }, "geometry": { "type": "Point", "coordinates": [ 117.251941, 31.8415294 ] } },
{ "type": "Feature", "properties": { "osm_id": "4603716503", "other_tags": "\"information\"=>\"guidepost\",\"tourism\"=>\"information\"" }, "geometry": { "type": "Point", "coordinates": [ 117.2494691, 31.8407763 ] } },
{ "type": "Feature", "properties": { "osm_id": "4603716504", "other_tags": "\"information\"=>\"guidepost\",\"tourism\"=>\"information\"" }, "geometry": { "type": "Point", "coordinates": [ 117.2491033, 31.8406658 ] } },
{ "type": "Feature", "properties": { "osm_id": "4784229122", "other_tags": "\"amenity\"=>\"charging_station\",\"operator\"=>\"哈哈哈\"" }, "geometry": { "type": "Point", "coordinates": [ 117.2565128, 31.8372989 ] } },
{ "type": "Feature", "properties": { "osm_id": "4784229123", "other_tags": "\"internet_access\"=>\"yes\",\"operator\"=>\"中国科学技术大学\",\"shop\"=>\"books\",\"wheelchair\"=>\"yes\"" }, "geometry": { "type": "Point", "coordinates": [ 117.2555325, 31.8403719 ] } },
{ "type": "Feature", "properties": { "osm_id": "4784244421", "other_tags": "\"air_conditioning\"=>\"yes\",\"internet_access\"=>\"yes\",\"internet_access:fee\"=>\"customers\",\"operator\"=>\"中国科学技术大学\",\"shop\"=>\"books\",\"wheelchair\"=>\"yes\"" }, "geometry": { "type": "Point", "coordinates": [ 117.2554406, 31.8403931 ] } },
{ "type": "Feature", "properties": { "osm_id": "4895305879", "name": "中国科学技术大学", "highway": "bus_stop", "other_tags": "\"bus\"=>\"yes\",\"name:en\"=>\"USTC\",\"name:zh\"=>\"中国科学技术大学\",\"name:zh-Hans\"=>\"中国科学技术大学\",\"name:zh-Hant\"=>\"中國科學技術大學\",\"public_transport\"=>\"platform\"" }, "geometry": { "type": "Point", "coordinates": [ 117.2627078, 31.8430314 ] } },
{ "type": "Feature", "properties": { "osm_id": "4895305896", "name": "中国科学技术大学", "highway": "bus_stop", "other_tags": "\"bus\"=>\"yes\",\"name:en\"=>\"USTC\",\"name:zh\"=>\"中国科学技术大学\",\"name:zh-Hans\"=>\"中国科学技术大学\",\"name:zh-Hant\"=>\"中國科學技術大學\",\"public_transport\"=>\"platform\"" }, "geometry": { "type": "Point", "coordinates": [ 117.2609152, 31.8395355 ] } },
{ "type": "Feature", "properties": { "osm_id": "5006731308", "name": "东区小南门", "barrier": "gate", "other_tags": "\"access\"=>\"permissive\",\"name:zh\"=>\"东区小南门\",\"name:zh-Hans\"=>\"东区小南门\",\"name:zh-Hant\"=>\"東區小南門\",\"operator\"=>\"中国科学技术大学\"" }, "geometry": { "type": "Point", "coordinates": [ 117.2613837, 31.8350829 ] } },
{ "type": "Feature", "properties": { "osm_id": "5022297423", "name": "太湖路西", "highway": "bus_stop", "other_tags": "\"bus\"=>\"yes\",\"name:en\"=>\"Taihulu West\",\"public_transport\"=>\"platform\"" }, "geometry": { "type": "Point", "coordinates": [ 117.2463116, 31.8356928 ] } },
{ "type": "Feature", "properties": { "osm_id": "5022297612", "name": "太湖路西", "highway": "bus_stop", "other_tags": "\"name:en\"=>\"Taihulu West\"" }, "geometry": { "type": "Point", "coordinates": [ 117.2457948, 31.8353733 ] } },
{ "type": "Feature", "properties": { "osm_id": "5230473653", "other_tags": "\"amenity\"=>\"toilets\",\"male\"=>\"yes\",\"toilets:disposal\"=>\"bucket\",\"toilets:position\"=>\"squat\"" }, "geometry": { "type": "Point", "coordinates": [ 117.2499056, 31.8423476 ] } },
{ "type": "Feature", "properties": { "osm_id": "5587453422", "name": "锦江之星 - 合肥金寨路中科大店", "other_tags": "\"addr:housenumber\"=>\"133\",\"addr:postcode\"=>\"230022\",\"addr:street\"=>\"金寨路\",\"name:en\"=>\"JJ Inns - Hefei Jingzhai Road\",\"tourism\"=>\"hotel\"" }, "geometry": { "type": "Point", "coordinates": [ 117.2616958, 31.8420169 ] } },
{ "type": "Feature", "properties": { "osm_id": "5923842436", "barrier": "gate", "other_tags": "\"bicycle\"=>\"yes\",\"foot\"=>\"yes\",\"motorcycle\"=>\"yes\",\"operator\"=>\"中国科学技术大学\"" }, "geometry": { "type": "Point", "coordinates": [ 117.2545783, 31.8407951 ] } },
{ "type": "Feature", "properties": { "osm_id": "5923851987", "other_tags": "\"building\"=>\"residential\"" }, "geometry": { "type": "Point", "coordinates": [ 117.260355, 31.8412192 ] } },
{ "type": "Feature", "properties": { "osm_id": "5923851988", "other_tags": "\"building\"=>\"residential\"" }, "geometry": { "type": "Point", "coordinates": [ 117.2603492, 31.8410604 ] } },
{ "type": "Feature", "properties": { "osm_id": "5923851989", "other_tags": "\"building\"=>\"residential\"" }, "geometry": { "type": "Point", "coordinates": [ 117.2600601, 31.841068 ] } },
{ "type": "Feature", "properties": { "osm_id": "5923851990", "other_tags": "\"building\"=>\"residential\"" }, "geometry": { "type": "Point", "coordinates": [ 117.2600659, 31.8412268 ] } },
{ "type": "Feature", "properties": { "osm_id": "5923851991", "other_tags": "\"building\"=>\"residential\"" }, "geometry": { "type": "Point", "coordinates": [ 117.2599799, 31.8412311 ] } },
{ "type": "Feature", "properties": { "osm_id": "5923851992", "other_tags": "\"building\"=>\"residential\"" }, "geometry": { "type": "Point", "coordinates": [ 117.259979, 31.8410487 ] } },
{ "type": "Feature", "properties": { "osm_id": "5923851993", "other_tags": "\"building\"=>\"residential\"" }, "geometry": { "type": "Point", "coordinates": [ 117.2595312, 31.8410503 ] } },
{ "type": "Feature", "properties": { "osm_id": "5923851994", "other_tags": "\"building\"=>\"residential\"" }, "geometry": { "type": "Point", "coordinates": [ 117.259532, 31.8412326 ] } },
{ "type": "Feature", "properties": { "osm_id": "5923851995", "other_tags": "\"building\"=>\"residential\"" }, "geometry": { "type": "Point", "coordinates": [ 117.2603904, 31.8415111 ] } },
{ "type": "Feature", "properties": { "osm_id": "5923851996", "other_tags": "\"building\"=>\"residential\"" }, "geometry": { "type": "Point", "coordinates": [ 117.2603837, 31.8413683 ] } },
{ "type": "Feature", "properties": { "osm_id": "5923851997", "other_tags": "\"building\"=>\"residential\"" }, "geometry": { "type": "Point", "coordinates": [ 117.2600409, 31.8413798 ] } },
{ "type": "Feature", "properties": { "osm_id": "5923851998", "other_tags": "\"building\"=>\"residential\"" }, "geometry": { "type": "Point", "coordinates": [ 117.2600475, 31.8415226 ] } },
{ "type": "Feature", "properties": { "osm_id": "5923851999", "other_tags": "\"building\"=>\"residential\"" }, "geometry": { "type": "Point", "coordinates": [ 117.2599215, 31.8414964 ] } },
{ "type": "Feature", "properties": { "osm_id": "5923852000", "other_tags": "\"building\"=>\"residential\"" }, "geometry": { "type": "Point", "coordinates": [ 117.2599249, 31.8413734 ] } },
{ "type": "Feature", "properties": { "osm_id": "5923852001", "other_tags": "\"building\"=>\"residential\"" }, "geometry": { "type": "Point", "coordinates": [ 117.2595587, 31.8413661 ] } },
{ "type": "Feature", "properties": { "osm_id": "5923852002", "other_tags": "\"building\"=>\"residential\"" }, "geometry": { "type": "Point", "coordinates": [ 117.2595553, 31.841489 ] } },
{ "type": "Feature", "properties": { "osm_id": "5923852003", "other_tags": "\"building\"=>\"residential\"" }, "geometry": { "type": "Point", "coordinates": [ 117.2604623, 31.8418026 ] } },
{ "type": "Feature", "properties": { "osm_id": "5923852004", "other_tags": "\"building\"=>\"residential\"" }, "geometry": { "type": "Point", "coordinates": [ 117.260465, 31.8416955 ] } },
{ "type": "Feature", "properties": { "osm_id": "5923852005", "other_tags": "\"building\"=>\"residential\"" }, "geometry": { "type": "Point", "coordinates": [ 117.2603712, 31.841659 ] } },
{ "type": "Feature", "properties": { "osm_id": "5923852006", "other_tags": "\"building\"=>\"residential\"" }, "geometry": { "type": "Point", "coordinates": [ 117.2600332, 31.8416567 ] } },
{ "type": "Feature", "properties": { "osm_id": "5923852007", "other_tags": "\"building\"=>\"residential\"" }, "geometry": { "type": "Point", "coordinates": [ 117.2600305, 31.8417957 ] } },
{ "type": "Feature", "properties": { "osm_id": "5923852008", "other_tags": "\"building\"=>\"residential\"" }, "geometry": { "type": "Point", "coordinates": [ 117.2599095, 31.8418082 ] } },
{ "type": "Feature", "properties": { "osm_id": "5923852009", "other_tags": "\"building\"=>\"residential\"" }, "geometry": { "type": "Point", "coordinates": [ 117.2599154, 31.8416646 ] } },
{ "type": "Feature", "properties": { "osm_id": "5923852010", "other_tags": "\"building\"=>\"residential\"" }, "geometry": { "type": "Point", "coordinates": [ 117.2595399, 31.8416536 ] } },
{ "type": "Feature", "properties": { "osm_id": "5923852011", "other_tags": "\"building\"=>\"residential\"" }, "geometry": { "type": "Point", "coordinates": [ 117.259534, 31.8417972 ] } },
{ "type": "Feature", "properties": { "osm_id": "6430302670", "name": "科大东区东南门", "barrier": "gate", "other_tags": "\"name:zh\"=>\"科大东区东南门\",\"name:zh-Hans\"=>\"科大东区东南门\",\"name:zh-Hant\"=>\"科大東區東南門\",\"operator\"=>\"中国科学技术大学\"" }, "geometry": { "type": "Point", "coordinates": [ 117.2652301, 31.8347489 ] } },
{ "type": "Feature", "properties": { "osm_id": "6430325307", "name": "小西门", "barrier": "gate", "other_tags": "\"name:zh\"=>\"小西门\",\"name:zh-Hans\"=>\"小西门\",\"name:zh-Hant\"=>\"小西門\"" }, "geometry": { "type": "Point", "coordinates": [ 117.2598833, 31.8365178 ] } },
{ "type": "Feature", "properties": { "osm_id": "6430325308", "name": "东区西大门（正门）", "barrier": "gate", "other_tags": "\"name:zh\"=>\"东区西大门（正门）\",\"name:zh-Hans\"=>\"东区西大门（正门）\",\"name:zh-Hant\"=>\"東區西大門（正門）\",\"operator\"=>\"中国科学技术大学\"" }, "geometry": { "type": "Point", "coordinates": [ 117.2614575, 31.8401453 ] } },
{ "type": "Feature", "properties": { "osm_id": "6430329987", "name": "樱花大道", "other_tags": "\"name:zh\"=>\"樱花大道\",\"name:zh-Hans\"=>\"樱花大道\",\"name:zh-Hant\"=>\"櫻花大道\",\"natural\"=>\"wood\"" }, "geometry": { "type": "Point", "coordinates": [ 117.2634102, 31.8420457 ] } },
{ "type": "Feature", "properties": { "osm_id": "8478659634", "name": "市第三医院", "other_tags": "\"name:en\"=>\"Hefei No.3 People's Hospital\",\"name:zh\"=>\"市第三医院\",\"operator\"=>\"合肥轨道交通集团有限公司\",\"public_transport\"=>\"stop_position\",\"railway\"=>\"stop\",\"subway\"=>\"yes\"" }, "geometry": { "type": "Point", "coordinates": [ 117.2651262, 31.8305744 ] } },
{ "type": "Feature", "properties": { "osm_id": "8478659810", "name": "市第三医院", "other_tags": "\"name:en\"=>\"Hefei No.3 People's Hospital\",\"name:zh\"=>\"市第三医院\",\"operator\"=>\"合肥轨道交通集团有限公司\",\"public_transport\"=>\"stop_position\",\"railway\"=>\"stop\",\"subway\"=>\"yes\"" }, "geometry": { "type": "Point", "coordinates": [ 117.2651871, 31.8305566 ] } },
{ "type": "Feature", "properties": { "osm_id": "8480149104", "name": "中国科大东区", "other_tags": "\"name:en\"=>\"USTC-East Campus\",\"name:zh\"=>\"中国科大东区\",\"name:zh-Hant\"=>\"中國科大東區\",\"operator\"=>\"合肥轨道交通集团有限公司\",\"public_transport\"=>\"stop_position\",\"railway\"=>\"stop\",\"subway\"=>\"yes\"" }, "geometry": { "type": "Point", "coordinates": [ 117.2675065, 31.8438352 ] } },
{ "type": "Feature", "properties": { "osm_id": "8480149116", "name": "白水坝", "other_tags": "\"name:en\"=>\"Baishuiba\",\"name:zh\"=>\"白水坝\",\"operator\"=>\"合肥轨道交通集团有限公司\",\"public_transport\"=>\"stop_position\",\"railway\"=>\"stop\",\"subway\"=>\"yes\"" }, "geometry": { "type": "Point", "coordinates": [ 117.2729736, 31.8815392 ] } },
{ "type": "Feature", "properties": { "osm_id": "8480149117", "name": "白水坝", "other_tags": "\"name:en\"=>\"Baishuiba\",\"name:zh\"=>\"白水坝\",\"operator\"=>\"合肥轨道交通集团有限公司\",\"public_transport\"=>\"stop_position\",\"railway\"=>\"stop\",\"subway\"=>\"yes\"" }, "geometry": { "type": "Point", "coordinates": [ 117.2729095, 31.8815372 ] } },
{ "type": "Feature", "properties": { "osm_id": "8480149118", "name": "北五里井", "other_tags": "\"name:en\"=>\"Beiwulijing\",\"operator\"=>\"合肥轨道交通集团有限公司\",\"public_transport\"=>\"stop_position\",\"railway\"=>\"stop\",\"subway\"=>\"yes\"" }, "geometry": { "type": "Point", "coordinates": [ 117.2701028, 31.8995292 ] } },
{ "type": "Feature", "properties": { "osm_id": "8480149119", "name": "北五里井", "other_tags": "\"name:en\"=>\"Beiwulijing\",\"operator\"=>\"合肥轨道交通集团有限公司\",\"public_transport\"=>\"stop_position\",\"railway\"=>\"stop\",\"subway\"=>\"yes\"" }, "geometry": { "type": "Point", "coordinates": [ 117.2700401, 31.8995178 ] } },
{ "type": "Feature", "properties": { "osm_id": "8480149120", "name": "菱湖公园", "other_tags": "\"name:en\"=>\"Linghugongyuan\",\"name:zh\"=>\"菱湖公园\",\"operator\"=>\"合肥轨道交通集团有限公司\",\"public_transport\"=>\"stop_position\",\"railway\"=>\"stop\",\"subway\"=>\"yes\"" }, "geometry": { "type": "Point", "coordinates": [ 117.2661185, 31.9189762 ] } },
{ "type": "Feature", "properties": { "osm_id": "8480149121", "name": "菱湖公园", "other_tags": "\"name:en\"=>\"Linghugongyuan\",\"name:zh\"=>\"菱湖公园\",\"operator\"=>\"合肥轨道交通集团有限公司\",\"public_transport\"=>\"stop_position\",\"railway\"=>\"stop\",\"subway\"=>\"yes\"" }, "geometry": { "type": "Point", "coordinates": [ 117.2661822, 31.9189826 ] } },
{ "type": "Feature", "properties": { "osm_id": "8480149122", "name": "汲桥路", "other_tags": "\"name:en\"=>\"Jiqiao Road\",\"name:zh\"=>\"汲桥路\",\"name:zh-Hans\"=>\"汲桥路\",\"name:zh-Hant\"=>\"汲橋路\",\"operator\"=>\"合肥轨道交通集团有限公司\",\"public_transport\"=>\"stop_position\",\"railway\"=>\"stop\",\"subway\"=>\"yes\"" }, "geometry": { "type": "Point", "coordinates": [ 117.2583182, 31.9430089 ] } },
{ "type": "Feature", "properties": { "osm_id": "8480149123", "name": "汲桥路", "other_tags": "\"name:en\"=>\"Jiqiao Road\",\"name:zh\"=>\"汲桥路\",\"name:zh-Hans\"=>\"汲桥路\",\"name:zh-Hant\"=>\"汲橋路\",\"operator\"=>\"合肥轨道交通集团有限公司\",\"public_transport\"=>\"stop_position\",\"railway\"=>\"stop\",\"subway\"=>\"yes\"" }, "geometry": { "type": "Point", "coordinates": [ 117.2582552, 31.9429988 ] } },
{ "type": "Feature", "properties": { "osm_id": "8480149124", "name": "海棠", "other_tags": "\"name:en\"=>\"Haitang\",\"name:zh\"=>\"海棠\",\"operator\"=>\"合肥轨道交通集团有限公司\",\"public_transport\"=>\"stop_position\",\"railway\"=>\"stop\",\"subway\"=>\"yes\"" }, "geometry": { "type": "Point", "coordinates": [ 117.2728283, 31.8889132 ] } },
{ "type": "Feature", "properties": { "osm_id": "8480149125", "name": "海棠", "other_tags": "\"name:en\"=>\"Haitang\",\"name:zh\"=>\"海棠\",\"operator\"=>\"合肥轨道交通集团有限公司\",\"public_transport\"=>\"stop_position\",\"railway\"=>\"stop\",\"subway\"=>\"yes\"" }, "geometry": { "type": "Point", "coordinates": [ 117.2727642, 31.888913 ] } },
{ "type": "Feature", "properties": { "osm_id": "8480149128", "name": "杏花公园", "other_tags": "\"name:en\"=>\"Xinghua Park\",\"name:zh\"=>\"杏花公园\",\"operator\"=>\"合肥轨道交通集团有限公司\",\"public_transport\"=>\"stop_position\",\"railway\"=>\"stop\",\"subway\"=>\"yes\"" }, "geometry": { "type": "Point", "coordinates": [ 117.2730331, 31.8730609 ] } },
{ "type": "Feature", "properties": { "osm_id": "8480149129", "name": "杏花公园", "other_tags": "\"name:en\"=>\"Xinghua Park\",\"name:zh\"=>\"杏花公园\",\"operator\"=>\"合肥轨道交通集团有限公司\",\"public_transport\"=>\"stop_position\",\"railway\"=>\"stop\",\"subway\"=>\"yes\"" }, "geometry": { "type": "Point", "coordinates": [ 117.2730965, 31.8730526 ] } },
{ "type": "Feature", "properties": { "osm_id": "8480149130", "name": "稻香楼", "other_tags": "\"name:en\"=>\"Daoxianglou\",\"name:zh\"=>\"稻香楼\",\"operator\"=>\"合肥轨道交通集团有限公司\",\"public_transport\"=>\"stop_position\",\"railway\"=>\"stop\",\"subway\"=>\"yes\"" }, "geometry": { "type": "Point", "coordinates": [ 117.2684506, 31.8513623 ] } },
{ "type": "Feature", "properties": { "osm_id": "8480149131", "name": "稻香楼", "other_tags": "\"name:en\"=>\"Daoxianglou\",\"name:zh\"=>\"稻香楼\",\"operator\"=>\"合肥轨道交通集团有限公司\",\"public_transport\"=>\"stop_position\",\"railway\"=>\"stop\",\"subway\"=>\"yes\"" }, "geometry": { "type": "Point", "coordinates": [ 117.2683897, 31.8513794 ] } },
{ "type": "Feature", "properties": { "osm_id": "8480149132", "name": "中国科大东区", "other_tags": "\"name:en\"=>\"USTC-East Campus\",\"name:zh\"=>\"中国科大东区\",\"name:zh-Hant\"=>\"中國科大東區\",\"operator\"=>\"合肥轨道交通集团有限公司\",\"public_transport\"=>\"stop_position\",\"railway\"=>\"stop\",\"subway\"=>\"yes\"" }, "geometry": { "type": "Point", "coordinates": [ 117.2675708, 31.8438368 ] } },
{ "type": "Feature", "properties": { "osm_id": "8480149174", "name": "休宁路", "other_tags": "\"name:en\"=>\"Xiuninglu\",\"name:zh\"=>\"休宁路\",\"operator\"=>\"合肥轨道交通集团有限公司\",\"public_transport\"=>\"stop_position\",\"railway\"=>\"stop\",\"subway\"=>\"yes\"" }, "geometry": { "type": "Point", "coordinates": [ 117.2633748, 31.820481 ] } },
{ "type": "Feature", "properties": { "osm_id": "8480149175", "name": "休宁路", "other_tags": "\"name:en\"=>\"Xiuninglu\",\"name:zh\"=>\"休宁路\",\"operator\"=>\"合肥轨道交通集团有限公司\",\"public_transport\"=>\"stop_position\",\"railway\"=>\"stop\",\"subway\"=>\"yes\"" }, "geometry": { "type": "Point", "coordinates": [ 117.2635126, 31.8204657 ] } },
{ "type": "Feature", "properties": { "osm_id": "8480149178", "name": "凌大塘", "other_tags": "\"name:en\"=>\"Lingdatang\",\"operator\"=>\"合肥轨道交通集团有限公司\",\"public_transport\"=>\"stop_position\",\"railway\"=>\"stop\",\"subway\"=>\"yes\"" }, "geometry": { "type": "Point", "coordinates": [ 117.271072, 31.8162227 ] } },
{ "type": "Feature", "properties": { "osm_id": "8480149179", "name": "凌大塘", "other_tags": "\"name:en\"=>\"Lingdatang\",\"operator\"=>\"合肥轨道交通集团有限公司\",\"public_transport\"=>\"stop_position\",\"railway\"=>\"stop\",\"subway\"=>\"yes\"" }, "geometry": { "type": "Point", "coordinates": [ 117.2710657, 31.816125 ] } },
{ "type": "Feature", "properties": { "osm_id": "8530220392", "highway": "crossing" }, "geometry": { "type": "Point", "coordinates": [ 117.26533, 31.8309821 ] } },
{ "type": "Feature", "properties": { "osm_id": "8530220397", "highway": "crossing" }, "geometry": { "type": "Point", "coordinates": [ 117.2652013, 31.8303887 ] } },
{ "type": "Feature", "properties": { "osm_id": "8530220398", "highway": "crossing" }, "geometry": { "type": "Point", "coordinates": [ 117.2650267, 31.8304043 ] } },
{ "type": "Feature", "properties": { "osm_id": "8530220399", "other_tags": "\"access\"=>\"private\",\"covered\"=>\"yes\",\"indoor\"=>\"yes\",\"leisure\"=>\"pitch\",\"sport\"=>\"badminton\"" }, "geometry": { "type": "Point", "coordinates": [ 117.2606826, 31.8373694 ] } },
{ "type": "Feature", "properties": { "osm_id": "10281993516", "name": "六中菱湖校区", "other_tags": "\"name:en\"=>\"Hefei No. 6 High School Linghu Campus\",\"name:zh-Hant\"=>\"六中菱湖校區\",\"public_transport\"=>\"stop_position\",\"railway\"=>\"stop\",\"subway\"=>\"yes\"" }, "geometry": { "type": "Point", "coordinates": [ 117.264601, 31.9319352 ] } },
{ "type": "Feature", "properties": { "osm_id": "10281993517", "name": "六中菱湖校区", "other_tags": "\"name:en\"=>\"Hefei No. 6 High School Linghu Campus\",\"name:zh-Hant\"=>\"六中菱湖校區\",\"public_transport\"=>\"stop_position\",\"railway\"=>\"stop\",\"subway\"=>\"yes\"" }, "geometry": { "type": "Point", "coordinates": [ 117.2645454, 31.931908 ] } },
{ "type": "Feature", "properties": { "osm_id": "10281993518", "name": "三孝口", "other_tags": "\"name:en\"=>\"Sanxiaokou\",\"public_transport\"=>\"stop_position\",\"railway\"=>\"stop\",\"subway\"=>\"yes\"" }, "geometry": { "type": "Point", "coordinates": [ 117.2703378, 31.8639495 ] } },
{ "type": "Feature", "properties": { "osm_id": "10281993519", "name": "三孝口", "other_tags": "\"name:en\"=>\"Sanxiaokou\",\"public_transport\"=>\"stop_position\",\"railway\"=>\"stop\",\"subway\"=>\"yes\"" }, "geometry": { "type": "Point", "coordinates": [ 117.2702755, 31.8639625 ] } },
{ "type": "Feature", "properties": { "osm_id": "10582867650", "name": "桃李苑餐厅", "other_tags": "\"amenity\"=>\"restaurant\",\"name:zh\"=>\"桃李苑餐厅\",\"name:zh-Hans\"=>\"桃李苑餐厅\",\"name:zh-Hant\"=>\"桃李苑餐廳\"" }, "geometry": { "type": "Point", "coordinates": [ 117.2555602, 31.8405359 ] } },
{ "type": "Feature", "properties": { "osm_id": "10582867656", "other_tags": "\"tourism\"=>\"information\"" }, "geometry": { "type": "Point", "coordinates": [ 117.254578, 31.8408404 ] } },
{ "type": "Feature", "properties": { "osm_id": "10582867666", "man_made": "surveillance", "other_tags": "\"camera:direction\"=>\"225\",\"surveillance:type\"=>\"camera\"" }, "geometry": { "type": "Point", "coordinates": [ 117.2609694, 31.8376869 ] } },
{ "type": "Feature", "properties": { "osm_id": "10582867667", "man_made": "surveillance", "other_tags": "\"camera:direction\"=>\"315\",\"surveillance:type\"=>\"camera\"" }, "geometry": { "type": "Point", "coordinates": [ 117.260999, 31.8374555 ] } },
{ "type": "Feature", "properties": { "osm_id": "10582867668", "man_made": "surveillance", "other_tags": "\"camera:direction\"=>\"45\",\"surveillance:type\"=>\"camera\"" }, "geometry": { "type": "Point", "coordinates": [ 117.2603769, 31.8374092 ] } },
{ "type": "Feature", "properties": { "osm_id": "10582867669", "man_made": "surveillance", "other_tags": "\"camera:direction\"=>\"135\",\"surveillance:type\"=>\"camera\"" }, "geometry": { "type": "Point", "coordinates": [ 117.260354, 31.8376424 ] } },
{ "type": "Feature", "properties": { "osm_id": "10582890637", "other_tags": "\"access\"=>\"private\",\"amenity\"=>\"bicycle_parking\",\"bicycle_parking\"=>\"shed\",\"capacity\"=>\"科大车行\",\"operator\"=>\"中国科学技术大学\",\"operator:type\"=>\"government\"" }, "geometry": { "type": "Point", "coordinates": [ 117.2621208, 31.8384029 ] } },
{ "type": "Feature", "properties": { "osm_id": "10582890651", "name": "赵忠尧先生像", "other_tags": "\"artwork_type\"=>\"statue\",\"name:zh\"=>\"赵忠尧先生像\",\"name:zh-Hans\"=>\"赵忠尧先生像\",\"name:zh-Hant\"=>\"趙忠堯先生像\",\"tourism\"=>\"artwork\"" }, "geometry": { "type": "Point", "coordinates": [ 117.2627413, 31.8353876 ] } },
{ "type": "Feature", "properties": { "osm_id": "10582890669", "name": "中科超市（东区）", "other_tags": "\"name:zh\"=>\"中科超市（东区）\",\"name:zh-Hans\"=>\"中科超市（东区）\",\"name:zh-Hant\"=>\"中科超市（東區）\",\"operator\"=>\"中国科学技术大学\",\"shop\"=>\"yes\",\"wheelchair\"=>\"yes\"" }, "geometry": { "type": "Point", "coordinates": [ 117.2655872, 31.8380527 ] } },
{ "type": "Feature", "properties": { "osm_id": "10582890670", "name": "科大眼镜", "other_tags": "\"name:zh\"=>\"科大眼镜\",\"name:zh-Hans\"=>\"科大眼镜\",\"name:zh-Hant\"=>\"科大眼鏡\",\"operator\"=>\"中国科学技术大学\",\"shop\"=>\"optician\",\"wheelchair\"=>\"yes\"" }, "geometry": { "type": "Point", "coordinates": [ 117.2653107, 31.8380396 ] } },
{ "type": "Feature", "properties": { "osm_id": "10582890745", "name": "幼儿园门", "barrier": "gate" }, "geometry": { "type": "Point", "coordinates": [ 117.2675854, 31.8405881 ] } },
{ "type": "Feature", "properties": { "osm_id": "10582890761", "name": "郭永怀像", "other_tags": "\"artwork_type\"=>\"statue\",\"name:zh\"=>\"郭永怀像\",\"name:zh-Hans\"=>\"郭永怀像\",\"name:zh-Hant\"=>\"郭永懷像\",\"tourism\"=>\"artwork\"" }, "geometry": { "type": "Point", "coordinates": [ 117.2632156, 31.8399029 ] } },
{ "type": "Feature", "properties": { "osm_id": "10582890762", "name": "华罗庚像", "other_tags": "\"artwork_type\"=>\"statue\",\"name:zh\"=>\"华罗庚像\",\"name:zh-Hans\"=>\"华罗庚像\",\"name:zh-Hant\"=>\"華羅庚像\",\"tourism\"=>\"artwork\"" }, "geometry": { "type": "Point", "coordinates": [ 117.2631849, 31.8401826 ] } },
{ "type": "Feature", "properties": { "osm_id": "10582890763", "name": "钱临照像", "other_tags": "\"artwork_type\"=>\"statue\",\"name:zh\"=>\"钱临照像\",\"name:zh-Hans\"=>\"钱临照像\",\"name:zh-Hant\"=>\"錢臨照像\",\"tourism\"=>\"artwork\"" }, "geometry": { "type": "Point", "coordinates": [ 117.264296, 31.8400219 ] } },
{ "type": "Feature", "properties": { "osm_id": "10582890764", "name": "红专并进 理实交融", "other_tags": "\"historic\"=>\"memorial\",\"name:zh\"=>\"红专并进 理实交融\",\"name:zh-Hans\"=>\"红专并进 理实交融\",\"name:zh-Hant\"=>\"紅專並進 理實交融\"" }, "geometry": { "type": "Point", "coordinates": [ 117.2642385, 31.840471 ] } },
{ "type": "Feature", "properties": { "osm_id": "10582890777", "name": "江泽民主席题词", "other_tags": "\"historic\"=>\"memorial\",\"name:zh\"=>\"江泽民主席题词\",\"name:zh-Hans\"=>\"江泽民主席题词\",\"name:zh-Hant\"=>\"江澤民主席題詞\"" }, "geometry": { "type": "Point", "coordinates": [ 117.2616784, 31.8401681 ] } },
{ "type": "Feature", "properties": { "osm_id": "10582890793", "name": "心理健康中心", "other_tags": "\"amenity\"=>\"clinic\",\"healthcare\"=>\"clinic\",\"name:zh\"=>\"心理健康中心\",\"name:zh-Hans\"=>\"心理健康中心\",\"name:zh-Hant\"=>\"心理健康中心\",\"operator\"=>\"中国科学技术大学\",\"operator:type\"=>\"government\",\"wheelchair\"=>\"yes\"" }, "geometry": { "type": "Point", "coordinates": [ 117.2591542, 31.8415813 ] } },
{ "type": "Feature", "properties": { "osm_id": "10582890794", "name": "USTC1958（中区）", "other_tags": "\"amenity\"=>\"cafe\",\"internet_access\"=>\"yes\",\"internet_access:fee\"=>\"customers\",\"name:zh\"=>\"USTC1958（中区）\",\"name:zh-Hans\"=>\"USTC1958（中区）\",\"name:zh-Hant\"=>\"USTC1958（中區）\",\"smoking\"=>\"no\",\"wheelchair\"=>\"yes\"" }, "geometry": { "type": "Point", "coordinates": [ 117.2589723, 31.8410292 ] } },
{ "type": "Feature", "properties": { "osm_id": "10582890795", "name": "现代艺术中心", "other_tags": "\"air_conditioning\"=>\"yes\",\"amenity\"=>\"exhibition_centre\",\"internet_access\"=>\"yes\",\"internet_access:fee\"=>\"customers\",\"name:zh\"=>\"现代艺术中心\",\"name:zh-Hans\"=>\"现代艺术中心\",\"name:zh-Hant\"=>\"現代藝術中心\",\"operator\"=>\"中国科学技术大学\",\"operator:type\"=>\"government\",\"wheelchair\"=>\"yes\"" }, "geometry": { "type": "Point", "coordinates": [ 117.2580021, 31.8410595 ] } },
{ "type": "Feature", "properties": { "osm_id": "10582890796", "name": "创新创业展览", "other_tags": "\"amenity\"=>\"exhibition_centre\",\"internet_access\"=>\"yes\",\"internet_access:fee\"=>\"customers\",\"name:zh\"=>\"创新创业展览\",\"name:zh-Hans\"=>\"创新创业展览\",\"name:zh-Hant\"=>\"創新創業展覽\",\"operator\"=>\"中国科学技术大学\",\"operator:type\"=>\"government\",\"wheelchair\"=>\"yes\"" }, "geometry": { "type": "Point", "coordinates": [ 117.2571049, 31.8410358 ] } },
{ "type": "Feature", "properties": { "osm_id": "10582890850", "other_tags": "\"entrance\"=>\"yes\"" }, "geometry": { "type": "Point", "coordinates": [ 117.2474829, 31.8419356 ] } },
{ "type": "Feature", "properties": { "osm_id": "10582890851", "other_tags": "\"entrance\"=>\"yes\"" }, "geometry": { "type": "Point", "coordinates": [ 117.2475009, 31.8407167 ] } },
{ "type": "Feature", "properties": { "osm_id": "10583324007", "other_tags": "\"access\"=>\"private\",\"leisure\"=>\"pitch\",\"sport\"=>\"table_tennis\"" }, "geometry": { "type": "Point", "coordinates": [ 117.247926, 31.8416563 ] } },
{ "type": "Feature", "properties": { "osm_id": "10583324011", "name": "创新创业学院", "other_tags": "\"amenity\"=>\"college\",\"internet_access\"=>\"yes\",\"internet_access:fee\"=>\"customers\",\"name:zh\"=>\"创新创业学院\",\"name:zh-Hans\"=>\"创新创业学院\",\"name:zh-Hant\"=>\"創新創業學院\",\"operator\"=>\"中国科学技术大学\",\"operator:type\"=>\"government\",\"wheelchair\"=>\"yes\"" }, "geometry": { "type": "Point", "coordinates": [ 117.2480291, 31.8417122 ] } },
{ "type": "Feature", "properties": { "osm_id": "10583324039", "name": "教材书库", "other_tags": "\"name:zh\"=>\"教材书库\",\"name:zh-Hans\"=>\"教材书库\",\"name:zh-Hant\"=>\"教材書庫\",\"operator\"=>\"中国科学技术大学\",\"shop\"=>\"bookmaker\",\"wheelchair\"=>\"yes\"" }, "geometry": { "type": "Point", "coordinates": [ 117.2591238, 31.8419889 ] } },
{ "type": "Feature", "properties": { "osm_id": "10583324040", "other_tags": "\"amenity\"=>\"parcel_locker\",\"operator\"=>\"中区近邻宝\"" }, "geometry": { "type": "Point", "coordinates": [ 117.2591887, 31.8419886 ] } },
{ "type": "Feature", "properties": { "osm_id": "10583324104", "name": "杨振宁像", "other_tags": "\"artwork_type\"=>\"statue\",\"name:zh\"=>\"杨振宁像\",\"name:zh-Hans\"=>\"杨振宁像\",\"name:zh-Hant\"=>\"楊振寧像\",\"tourism\"=>\"artwork\"" }, "geometry": { "type": "Point", "coordinates": [ 117.2649951, 31.8399211 ] } },
{ "type": "Feature", "properties": { "osm_id": "10583324203", "name": "USTC1958（西区）", "other_tags": "\"amenity\"=>\"cafe\",\"internet_access\"=>\"yes\",\"internet_access:fee\"=>\"customers\",\"name:zh\"=>\"USTC1958（西区）\",\"name:zh-Hans\"=>\"USTC1958（西区）\",\"name:zh-Hant\"=>\"USTC1958（西區）\",\"smoking\"=>\"no\",\"wheelchair\"=>\"yes\"" }, "geometry": { "type": "Point", "coordinates": [ 117.2509821, 31.8409566 ] } },
{ "type": "Feature", "properties": { "osm_id": "10583324209", "name": "8348咖啡馆", "other_tags": "\"amenity\"=>\"cafe\",\"name:zh\"=>\"8348咖啡馆\",\"name:zh-Hans\"=>\"8348咖啡馆\",\"name:zh-Hant\"=>\"8348咖啡館\"" }, "geometry": { "type": "Point", "coordinates": [ 117.2496601, 31.8381272 ] } },
{ "type": "Feature", "properties": { "osm_id": "10583324234", "name": "桂兰洗衣店", "other_tags": "\"name:zh\"=>\"桂兰洗衣店\",\"name:zh-Hans\"=>\"桂兰洗衣店\",\"name:zh-Hant\"=>\"桂蘭洗衣店\",\"shop\"=>\"laundry\",\"wheelchair\"=>\"yes\"" }, "geometry": { "type": "Point", "coordinates": [ 117.2660733, 31.8402774 ] } },
{ "type": "Feature", "properties": { "osm_id": "10583324252", "other_tags": "\"entrance\"=>\"yes\"" }, "geometry": { "type": "Point", "coordinates": [ 117.2652137, 31.8367555 ] } },
{ "type": "Feature", "properties": { "osm_id": "10583324253", "other_tags": "\"amenity\"=>\"parking\",\"layer\"=>\"-1\",\"parking\"=>\"underground\"" }, "geometry": { "type": "Point", "coordinates": [ 117.2652129, 31.8367711 ] } },
{ "type": "Feature", "properties": { "osm_id": "10583324278", "barrier": "gate" }, "geometry": { "type": "Point", "coordinates": [ 117.2501655, 31.8377731 ] } },
{ "type": "Feature", "properties": { "osm_id": "10583324314", "name": "东区近邻宝", "other_tags": "\"amenity\"=>\"parcel_locker\",\"name:zh\"=>\"东区近邻宝\",\"name:zh-Hans\"=>\"东区近邻宝\",\"name:zh-Hant\"=>\"東區近鄰寶\",\"operator\"=>\"中国科学技术大学\"" }, "geometry": { "type": "Point", "coordinates": [ 117.2609822, 31.8372861 ] } },
{ "type": "Feature", "properties": { "osm_id": "10583324326", "other_tags": "\"access\"=>\"private\",\"leisure\"=>\"pitch\",\"sport\"=>\"table_tennis\"" }, "geometry": { "type": "Point", "coordinates": [ 117.260804, 31.837885 ] } },
{ "type": "Feature", "properties": { "osm_id": "10583324327", "other_tags": "\"leisure\"=>\"fitness_centre\"" }, "geometry": { "type": "Point", "coordinates": [ 117.2607047, 31.8378899 ] } },
{ "type": "Feature", "properties": { "osm_id": "10583324328", "name": "悦动空间", "other_tags": "\"leisure\"=>\"fitness_centre\",\"name:zh\"=>\"悦动空间\",\"name:zh-Hans\"=>\"悦动空间\",\"name:zh-Hant\"=>\"悅動空間\"" }, "geometry": { "type": "Point", "coordinates": [ 117.2591417, 31.8417168 ] } },
{ "type": "Feature", "properties": { "osm_id": "10583324387", "name": "慢图书学术图书", "other_tags": "\"name:zh\"=>\"慢图书学术图书\",\"name:zh-Hans\"=>\"慢图书学术图书\",\"name:zh-Hant\"=>\"慢圖書學術圖書\",\"shop\"=>\"bookmaker\",\"wheelchair\"=>\"yes\"" }, "geometry": { "type": "Point", "coordinates": [ 117.2662973, 31.8401362 ] } },
{ "type": "Feature", "properties": { "osm_id": "10587001058", "name": "天文学系", "other_tags": "\"amenity\"=>\"college\",\"internet_access\"=>\"yes\",\"internet_access:fee\"=>\"customers\",\"name:zh\"=>\"天文学系\",\"name:zh-Hans\"=>\"天文学系\",\"operator\"=>\"中国科学技术大学\",\"operator:type\"=>\"government\",\"wheelchair\"=>\"yes\"" }, "geometry": { "type": "Point", "coordinates": [ 117.2639353, 31.8350479 ] } },
{ "type": "Feature", "properties": { "osm_id": "10587001059", "name": "网络空间安全学院（东区）", "other_tags": "\"amenity\"=>\"college\",\"internet_access\"=>\"yes\",\"internet_access:fee\"=>\"customers\",\"name:zh\"=>\"网络空间安全学院（东区）\",\"name:zh-Hans\"=>\"网络空间安全学院（东区）\",\"name:zh-Hant\"=>\"網絡空間安全學院（東區）\",\"operator\"=>\"中国科学技术大学\",\"operator:type\"=>\"government\",\"wheelchair\"=>\"yes\"" }, "geometry": { "type": "Point", "coordinates": [ 117.2638814, 31.8353724 ] } },
{ "type": "Feature", "properties": { "osm_id": "10587001060", "name": "合肥微尺度物质科学国家研究中心", "other_tags": "\"name:zh\"=>\"合肥微尺度物质科学国家研究中心\",\"name:zh-Hans\"=>\"合肥微尺度物质科学国家研究中心\",\"name:zh-Hant\"=>\"合肥微尺度物質科學國家研究中心\",\"office\"=>\"research\",\"operator\"=>\"中国科学技术大学\",\"smoking\"=>\"no\",\"wheelchair\"=>\"yes\"" }, "geometry": { "type": "Point", "coordinates": [ 117.2641813, 31.8352414 ] } },
{ "type": "Feature", "properties": { "osm_id": "10587001061", "name": "中国科学院核探测与核技术国家重点实验室", "other_tags": "\"name:zh\"=>\"中国科学院核探测与核技术国家重点实验室\",\"name:zh-Hans\"=>\"中国科学院核探测与核技术国家重点实验室\",\"name:zh-Hant\"=>\"中國科學院核探測與核技術國家重點實驗室\",\"office\"=>\"research\",\"operator\"=>\"中国科学技术大学\",\"smoking\"=>\"no\",\"wheelchair\"=>\"yes\"" }, "geometry": { "type": "Point", "coordinates": [ 117.2658974, 31.8363756 ] } },
{ "type": "Feature", "properties": { "osm_id": "10587001062", "name": "物理学院", "other_tags": "\"amenity\"=>\"college\",\"internet_access\"=>\"yes\",\"name:zh\"=>\"物理学院\",\"name:zh-Hans\"=>\"物理学院\",\"name:zh-Hant\"=>\"物理學院\",\"operator\"=>\"中国科学技术大学\",\"operator:type\"=>\"government\",\"wheelchair\"=>\"yes\"" }, "geometry": { "type": "Point", "coordinates": [ 117.2655169, 31.8361629 ] } },
{ "type": "Feature", "properties": { "osm_id": "10587001063", "name": "中国科学院量子信息与量子科技创新研究院", "other_tags": "\"name:zh\"=>\"中国科学院量子信息与量子科技创新研究院\",\"name:zh-Hans\"=>\"中国科学院量子信息与量子科技创新研究院\",\"name:zh-Hant\"=>\"中國科學院量子信息與量子科技創新研究院\",\"office\"=>\"research\",\"operator\"=>\"中国科学技术大学\",\"smoking\"=>\"no\",\"wheelchair\"=>\"yes\"" }, "geometry": { "type": "Point", "coordinates": [ 117.2659059, 31.8361897 ] } },
{ "type": "Feature", "properties": { "osm_id": "10587001064", "name": "合肥微尺度物质科学国家研究中心", "other_tags": "\"name:zh\"=>\"合肥微尺度物质科学国家研究中心\",\"name:zh-Hans\"=>\"合肥微尺度物质科学国家研究中心\",\"name:zh-Hant\"=>\"合肥微尺度物質科學國家研究中心\",\"office\"=>\"research\",\"operator\"=>\"中国科学技术大学\",\"smoking\"=>\"no\",\"wheelchair\"=>\"yes\"" }, "geometry": { "type": "Point", "coordinates": [ 117.2654971, 31.8363661 ] } },
{ "type": "Feature", "properties": { "osm_id": "10587001065", "name": "μSTC缪子成像探测器", "other_tags": "\"amenity\"=>\"research_institute\",\"name:zh\"=>\"μSTC缪子成像探测器\",\"name:zh-Hans\"=>\"μSTC缪子成像探测器\",\"name:zh-Hant\"=>\"μSTC繆子成像探測器\",\"operator\"=>\"中国科学技术大学\",\"operator:type\"=>\"government\",\"wheelchair\"=>\"yes\"" }, "geometry": { "type": "Point", "coordinates": [ 117.2648307, 31.8359645 ] } },
{ "type": "Feature", "properties": { "osm_id": "10587001066", "name": "环境科学与工程系", "other_tags": "\"amenity\"=>\"college\",\"internet_access\"=>\"yes\",\"internet_access:fee\"=>\"customers\",\"name:zh\"=>\"环境科学与工程系\",\"name:zh-Hans\"=>\"环境科学与工程系\",\"name:zh-Hant\"=>\"環境科學與工程系\",\"operator\"=>\"中国科学技术大学\",\"operator:type\"=>\"government\",\"wheelchair\"=>\"yes\"" }, "geometry": { "type": "Point", "coordinates": [ 117.2631862, 31.8352419 ] } },
{ "type": "Feature", "properties": { "osm_id": "10587001067", "name": "物理学系", "other_tags": "\"amenity\"=>\"college\",\"internet_access\"=>\"yes\",\"internet_access:fee\"=>\"customers\",\"name:zh\"=>\"物理学系\",\"name:zh-Hans\"=>\"物理学系\",\"name:zh-Hant\"=>\"物理學系\",\"operator\"=>\"中国科学技术大学\",\"operator:type\"=>\"government\",\"wheelchair\"=>\"yes\"" }, "geometry": { "type": "Point", "coordinates": [ 117.2614529, 31.8397511 ] } },
{ "type": "Feature", "properties": { "osm_id": "10587001068", "name": "信息科学技术学院", "other_tags": "\"amenity\"=>\"college\",\"internet_access\"=>\"yes\",\"internet_access:fee\"=>\"customers\",\"name:zh\"=>\"信息科学技术学院\",\"name:zh-Hans\"=>\"信息科学技术学院\",\"name:zh-Hant\"=>\"信息科學技術學院\",\"operator\"=>\"中国科学技术大学\",\"operator:type\"=>\"government\",\"wheelchair\"=>\"yes\"" }, "geometry": { "type": "Point", "coordinates": [ 117.250983, 31.8396167 ] } },
{ "type": "Feature", "properties": { "osm_id": "10587001069", "name": "电子工程与信息科学系", "other_tags": "\"amenity\"=>\"college\",\"internet_access\"=>\"yes\",\"internet_access:fee\"=>\"customers\",\"name:zh\"=>\"电子工程与信息科学系\",\"name:zh-Hans\"=>\"电子工程与信息科学系\",\"name:zh-Hant\"=>\"電子工程與信息科學系\",\"operator\"=>\"中国科学技术大学\",\"operator:type\"=>\"government\",\"wheelchair\"=>\"yes\"" }, "geometry": { "type": "Point", "coordinates": [ 117.2511785, 31.8395295 ] } },
{ "type": "Feature", "properties": { "osm_id": "10587001070", "name": "自动化系", "other_tags": "\"amenity\"=>\"college\",\"internet_access\"=>\"yes\",\"internet_access:fee\"=>\"customers\",\"name:zh\"=>\"自动化系\",\"name:zh-Hans\"=>\"自动化系\",\"name:zh-Hant\"=>\"自動化系\",\"operator\"=>\"中国科学技术大学\",\"operator:type\"=>\"government\",\"wheelchair\"=>\"yes\"" }, "geometry": { "type": "Point", "coordinates": [ 117.2504409, 31.8391803 ] } },
{ "type": "Feature", "properties": { "osm_id": "10587001071", "name": "计算机科学与技术学院", "other_tags": "\"amenity\"=>\"college\",\"internet_access\"=>\"yes\",\"internet_access:fee\"=>\"customers\",\"name:zh\"=>\"计算机科学与技术学院\",\"name:zh-Hans\"=>\"计算机科学与技术学院\",\"name:zh-Hant\"=>\"計算機科學與技術學院\",\"operator\"=>\"中国科学技术大学\",\"operator:type\"=>\"government\",\"wheelchair\"=>\"yes\"" }, "geometry": { "type": "Point", "coordinates": [ 117.2502475, 31.8391844 ] } },
{ "type": "Feature", "properties": { "osm_id": "10587001072", "name": "人工智能与数据科学学院", "other_tags": "\"amenity\"=>\"college\",\"internet_access\"=>\"yes\",\"internet_access:fee\"=>\"customers\",\"name:zh\"=>\"人工智能与数据科学学院\",\"name:zh-Hans\"=>\"人工智能与数据科学学院\",\"name:zh-Hant\"=>\"人工智能與數據科學學院\",\"operator\"=>\"中国科学技术大学\",\"operator:type\"=>\"government\",\"wheelchair\"=>\"yes\"" }, "geometry": { "type": "Point", "coordinates": [ 117.2538219, 31.8428442 ] } },
{ "type": "Feature", "properties": { "osm_id": "10587001073", "name": "网络空间安全学院（西区）", "other_tags": "\"amenity\"=>\"college\",\"internet_access\"=>\"yes\",\"internet_access:fee\"=>\"customers\",\"name:zh\"=>\"网络空间安全学院（西区）\",\"name:zh-Hans\"=>\"网络空间安全学院（西区）\",\"name:zh-Hant\"=>\"網絡空間安全學院（西區）\",\"operator\"=>\"中国科学技术大学\",\"operator:type\"=>\"government\",\"wheelchair\"=>\"yes\"" }, "geometry": { "type": "Point", "coordinates": [ 117.2494998, 31.8394879 ] } },
{ "type": "Feature", "properties": { "osm_id": "10587001076", "name": "微电子学院（西区）", "other_tags": "\"amenity\"=>\"college\",\"internet_access\"=>\"yes\",\"internet_access:fee\"=>\"customers\",\"name:zh\"=>\"微电子学院（西区）\",\"name:zh-Hans\"=>\"微电子学院（西区）\",\"name:zh-Hant\"=>\"微電子學院（西區）\",\"operator\"=>\"中国科学技术大学\",\"operator:type\"=>\"government\",\"wheelchair\"=>\"yes\"" }, "geometry": { "type": "Point", "coordinates": [ 117.250626, 31.8391843 ] } },
{ "type": "Feature", "properties": { "osm_id": "10587001077", "name": "地球与空间科学学院", "other_tags": "\"amenity\"=>\"college\",\"internet_access\"=>\"yes\",\"internet_access:fee\"=>\"customers\",\"name:zh\"=>\"地球与空间科学学院\",\"name:zh-Hans\"=>\"地球与空间科学学院\",\"name:zh-Hant\"=>\"地球與空間科學學院\",\"operator\"=>\"中国科学技术大学\",\"operator:type\"=>\"government\",\"wheelchair\"=>\"yes\"" }, "geometry": { "type": "Point", "coordinates": [ 117.2653647, 31.8432467 ] } },
{ "type": "Feature", "properties": { "osm_id": "10587001078", "name": "微纳研究与制造中心", "other_tags": "\"name:zh\"=>\"微纳研究与制造中心\",\"name:zh-Hans\"=>\"微纳研究与制造中心\",\"name:zh-Hant\"=>\"微納研究與製造中心\",\"office\"=>\"research\",\"operator\"=>\"中国科学技术大学\",\"smoking\"=>\"no\",\"wheelchair\"=>\"yes\"" }, "geometry": { "type": "Point", "coordinates": [ 117.2479655, 31.8403796 ] } },
{ "type": "Feature", "properties": { "osm_id": "10587001079", "name": "合肥微尺度物质科学国家研究中心（西区）", "other_tags": "\"air_conditioning\"=>\"yes\",\"name:zh\"=>\"合肥微尺度物质科学国家研究中心（西区）\",\"name:zh-Hans\"=>\"合肥微尺度物质科学国家研究中心（西区）\",\"name:zh-Hant\"=>\"合肥微尺度物質科學國家研究中心（西區）\",\"office\"=>\"research\",\"operator\"=>\"中国科学技术大学\",\"smoking\"=>\"no\",\"wheelchair\"=>\"yes\"" }, "geometry": { "type": "Point", "coordinates": [ 117.2483684, 31.8403897 ] } },
{ "type": "Feature", "properties": { "osm_id": "10587001080", "name": "基础医学院", "other_tags": "\"amenity\"=>\"college\",\"internet_access\"=>\"yes\",\"internet_access:fee\"=>\"customers\",\"name:zh\"=>\"基础医学院\",\"name:zh-Hans\"=>\"基础医学院\",\"name:zh-Hant\"=>\"基礎醫學院\",\"operator\"=>\"中国科学技术大学\",\"operator:type\"=>\"government\",\"wheelchair\"=>\"yes\"" }, "geometry": { "type": "Point", "coordinates": [ 117.2536937, 31.8411559 ] } },
{ "type": "Feature", "properties": { "osm_id": "10587001081", "name": "管理学院", "other_tags": "\"amenity\"=>\"college\",\"internet_access\"=>\"yes\",\"internet_access:fee\"=>\"customers\",\"name:zh\"=>\"管理学院\",\"name:zh-Hans\"=>\"管理学院\",\"name:zh-Hant\"=>\"管理學院\",\"operator\"=>\"中国科学技术大学\",\"operator:type\"=>\"government\",\"wheelchair\"=>\"yes\"" }, "geometry": { "type": "Point", "coordinates": [ 117.2662646, 31.8433105 ] } },
{ "type": "Feature", "properties": { "osm_id": "10587001082", "name": "公共事务学院", "other_tags": "\"amenity\"=>\"college\",\"internet_access\"=>\"yes\",\"internet_access:fee\"=>\"customers\",\"name:zh\"=>\"公共事务学院\",\"name:zh-Hans\"=>\"公共事务学院\",\"name:zh-Hant\"=>\"公共事務學院\",\"operator\"=>\"中国科学技术大学\",\"operator:type\"=>\"government\",\"wheelchair\"=>\"yes\"" }, "geometry": { "type": "Point", "coordinates": [ 117.266742, 31.843325 ] } },
{ "type": "Feature", "properties": { "osm_id": "10587001083", "name": "马克思主义学院", "other_tags": "\"amenity\"=>\"college\",\"internet_access\"=>\"yes\",\"internet_access:fee\"=>\"customers\",\"name:zh\"=>\"马克思主义学院\",\"name:zh-Hans\"=>\"马克思主义学院\",\"name:zh-Hant\"=>\"馬克思主義學院\",\"operator\"=>\"中国科学技术大学\",\"operator:type\"=>\"government\",\"wheelchair\"=>\"yes\"" }, "geometry": { "type": "Point", "coordinates": [ 117.2606942, 31.8376153 ] } },
{ "type": "Feature", "properties": { "osm_id": "10587001084", "name": "核科学技术学院", "other_tags": "\"amenity\"=>\"college\",\"internet_access\"=>\"yes\",\"internet_access:fee\"=>\"customers\",\"name:zh\"=>\"核科学技术学院\",\"name:zh-Hans\"=>\"核科学技术学院\",\"name:zh-Hant\"=>\"核科學技術學院\",\"operator\"=>\"中国科学技术大学\",\"operator:type\"=>\"government\",\"wheelchair\"=>\"yes\"" }, "geometry": { "type": "Point", "coordinates": [ 117.2538106, 31.8430664 ] } },
{ "type": "Feature", "properties": { "osm_id": "10587024725", "name": "工程科学学院", "other_tags": "\"amenity\"=>\"college\",\"internet_access\"=>\"yes\",\"internet_access:fee\"=>\"customers\",\"name:zh\"=>\"工程科学学院\",\"name:zh-Hans\"=>\"工程科学学院\",\"name:zh-Hant\"=>\"工程科學學院\",\"operator\"=>\"中国科学技术大学\",\"operator:type\"=>\"government\",\"wheelchair\"=>\"yes\"" }, "geometry": { "type": "Point", "coordinates": [ 117.2519355, 31.8395837 ] } },
{ "type": "Feature", "properties": { "osm_id": "10587024726", "name": "近代力学系", "other_tags": "\"amenity\"=>\"college\",\"internet_access\"=>\"yes\",\"internet_access:fee\"=>\"customers\",\"name:zh\"=>\"近代力学系\",\"name:zh-Hans\"=>\"近代力学系\",\"name:zh-Hant\"=>\"近代力學系\",\"operator\"=>\"中国科学技术大学\",\"operator:type\"=>\"government\",\"wheelchair\"=>\"yes\"" }, "geometry": { "type": "Point", "coordinates": [ 117.2515592, 31.8403129 ] } },
{ "type": "Feature", "properties": { "osm_id": "10588133339", "name": "孺子牛雕塑", "other_tags": "\"artwork_type\"=>\"sculpture\",\"name:zh\"=>\"孺子牛雕塑\",\"name:zh-Hans\"=>\"孺子牛雕塑\",\"name:zh-Hant\"=>\"孺子牛雕塑\",\"tourism\"=>\"artwork\"" }, "geometry": { "type": "Point", "coordinates": [ 117.2638131, 31.8375895 ] } },
{ "type": "Feature", "properties": { "osm_id": "10588133347", "name": "西南门", "barrier": "gate", "other_tags": "\"name:zh\"=>\"西南门\",\"name:zh-Hans\"=>\"西南门\",\"name:zh-Hant\"=>\"西南門\",\"operator\"=>\"中国科学技术大学\"" }, "geometry": { "type": "Point", "coordinates": [ 117.250309, 31.8369937 ] } },
{ "type": "Feature", "properties": { "osm_id": "10588133362", "other_tags": "\"amenity\"=>\"shelter\",\"operator\"=>\"中国科学技术大学\",\"wheelchair\"=>\"yes\"" }, "geometry": { "type": "Point", "coordinates": [ 117.263639, 31.8386517 ] } },
{ "type": "Feature", "properties": { "osm_id": "10588133363", "name": "中区东门", "barrier": "gate", "other_tags": "\"name:zh\"=>\"中区东门\",\"name:zh-Hans\"=>\"中区东门\",\"name:zh-Hant\"=>\"中區東門\",\"operator\"=>\"中国科学技术大学\",\"wheelchair\"=>\"yes\"" }, "geometry": { "type": "Point", "coordinates": [ 117.2608975, 31.8405941 ] } },
{ "type": "Feature", "properties": { "osm_id": "10687323217", "name": "中国科技大学西", "other_tags": "\"bus\"=>\"yes\",\"name:zh\"=>\"中国科技大学西\",\"name:zh-Hans\"=>\"中国科技大学西\",\"name:zh-Hant\"=>\"中國科技大學西\",\"public_transport\"=>\"stop_position\"" }, "geometry": { "type": "Point", "coordinates": [ 117.2617723, 31.8438255 ] } },
{ "type": "Feature", "properties": { "osm_id": "10687323218", "name": "中国科技大学西", "other_tags": "\"bus\"=>\"yes\",\"name:zh\"=>\"中国科技大学西\",\"name:zh-Hans\"=>\"中国科技大学西\",\"name:zh-Hant\"=>\"中國科技大學西\",\"public_transport\"=>\"stop_position\"" }, "geometry": { "type": "Point", "coordinates": [ 117.2612132, 31.8436146 ] } },
{ "type": "Feature", "properties": { "osm_id": "10687323219", "name": "中国科技大学", "other_tags": "\"bus\"=>\"yes\",\"name:en\"=>\"USTC\",\"name:zh\"=>\"中国科技大学\",\"name:zh-Hans\"=>\"中国科技大学\",\"name:zh-Hant\"=>\"中國科技大學\",\"public_transport\"=>\"stop_position\"" }, "geometry": { "type": "Point", "coordinates": [ 117.2627687, 31.8430081 ] } },
{ "type": "Feature", "properties": { "osm_id": "10687323220", "name": "中国科学技术大学", "other_tags": "\"bus\"=>\"yes\",\"name:en\"=>\"USTC\",\"name:zh\"=>\"中国科学技术大学\",\"name:zh-Hans\"=>\"中国科学技术大学\",\"name:zh-Hant\"=>\"中國科學技術大學\",\"public_transport\"=>\"stop_position\"" }, "geometry": { "type": "Point", "coordinates": [ 117.2653111, 31.8437166 ] } },
{ "type": "Feature", "properties": { "osm_id": "10687323221", "name": "安医附院", "other_tags": "\"bus\"=>\"yes\",\"name:en\"=>\"The First Affiliated Hospital of AMU\",\"name:zh\"=>\"安医附院\",\"name:zh-Hans\"=>\"安医附院\",\"name:zh-Hant\"=>\"安醫附院\",\"public_transport\"=>\"stop_position\"" }, "geometry": { "type": "Point", "coordinates": [ 117.2643751, 31.8448595 ] } },
{ "type": "Feature", "properties": { "osm_id": "10692272248", "name": "校车站", "other_tags": "\"bus\"=>\"yes\",\"name:zh\"=>\"校车站\",\"name:zh-Hans\"=>\"校车站\",\"name:zh-Hant\"=>\"校車站\",\"public_transport\"=>\"stop_position\"" }, "geometry": { "type": "Point", "coordinates": [ 117.2628235, 31.84098 ] } },
{ "type": "Feature", "properties": { "osm_id": "10713471567", "name": "机研所", "other_tags": "\"bus\"=>\"yes\",\"name:en\"=>\"Machinery Research Institute\",\"name:zh\"=>\"机研所\",\"name:zh-Hans\"=>\"机研所\",\"name:zh-Hant\"=>\"機研所\",\"public_transport\"=>\"stop_position\"" }, "geometry": { "type": "Point", "coordinates": [ 117.2595824, 31.8372484 ] } },
{ "type": "Feature", "properties": { "osm_id": "10713471568", "name": "中国科学技术大学", "other_tags": "\"bus\"=>\"yes\",\"name:en\"=>\"USTC\",\"name:zh\"=>\"中国科学技术大学\",\"name:zh-Hans\"=>\"中国科学技术大学\",\"name:zh-Hant\"=>\"中國科學技術大學\",\"public_transport\"=>\"stop_position\"" }, "geometry": { "type": "Point", "coordinates": [ 117.2608505, 31.8395808 ] } },
{ "type": "Feature", "properties": { "osm_id": "10713522299", "name": "稻香村", "other_tags": "\"bus\"=>\"yes\",\"name:zh\"=>\"稻香村\",\"name:zh-Hans\"=>\"稻香村\",\"name:zh-Hant\"=>\"稻香村\",\"public_transport\"=>\"stop_position\"" }, "geometry": { "type": "Point", "coordinates": [ 117.2563045, 31.8435196 ] } },
{ "type": "Feature", "properties": { "osm_id": "10713522301", "name": "合肥学院", "other_tags": "\"bus\"=>\"yes\",\"name:en\"=>\"Hefei University\",\"name:zh\"=>\"合肥学院\",\"name:zh-Hans\"=>\"合肥学院\",\"name:zh-Hant\"=>\"合肥學院\",\"public_transport\"=>\"stop_position\"" }, "geometry": { "type": "Point", "coordinates": [ 117.2577972, 31.8437416 ] } },
{ "type": "Feature", "properties": { "osm_id": "10718142368", "name": "合肥科技馆", "other_tags": "\"bus\"=>\"yes\",\"name:en\"=>\"Hefei Science and Technology Museum\",\"name:zh\"=>\"合肥科技馆\",\"name:zh-Hans\"=>\"合肥科技馆\",\"name:zh-Hant\"=>\"合肥科技館\",\"public_transport\"=>\"stop_position\"" }, "geometry": { "type": "Point", "coordinates": [ 117.2474818, 31.8433259 ] } },
{ "type": "Feature", "properties": { "osm_id": "10720303152", "name": "稻香村", "other_tags": "\"bus\"=>\"yes\",\"name:en\"=>\"Daoxiangcun\",\"name:zh\"=>\"稻香村\",\"name:zh-Hans\"=>\"稻香村\",\"name:zh-Hant\"=>\"稻香村\",\"public_transport\"=>\"stop_position\"" }, "geometry": { "type": "Point", "coordinates": [ 117.2531846, 31.8436422 ] } },
{ "type": "Feature", "properties": { "osm_id": "10724692334", "name": "西区校车站", "other_tags": "\"bus\"=>\"yes\",\"name:zh\"=>\"西区校车站\",\"name:zh-Hans\"=>\"西区校车站\",\"name:zh-Hant\"=>\"西區校車站\",\"public_transport\"=>\"stop_position\"" }, "geometry": { "type": "Point", "coordinates": [ 117.2510694, 31.8408296 ] } },
{ "type": "Feature", "properties": { "osm_id": "10724780015", "name": "合肥科技馆", "other_tags": "\"bus\"=>\"yes\",\"name:en\"=>\"Hefei Science and Technology Museum\",\"name:zh\"=>\"合肥科技馆\",\"name:zh-Hans\"=>\"合肥科技馆\",\"name:zh-Hant\"=>\"合肥科技館\",\"public_transport\"=>\"stop_position\"" }, "geometry": { "type": "Point", "coordinates": [ 117.2460932, 31.8414244 ] } },
{ "type": "Feature", "properties": { "osm_id": "10725399738", "name": "合肥科技馆", "other_tags": "\"bus\"=>\"yes\",\"name:zh\"=>\"Hefei Science and Technology Museum\",\"name:zh-Hans\"=>\"合肥科技馆\",\"name:zh-Hant\"=>\"合肥科技館\",\"public_transport\"=>\"stop_position\"" }, "geometry": { "type": "Point", "coordinates": [ 117.2456766, 31.8423396 ] } },
{ "type": "Feature", "properties": { "osm_id": "10725399739", "name": "合肥科技馆", "other_tags": "\"bus\"=>\"yes\",\"name:en\"=>\"Hefei Science and Technology Museum\",\"name:zh\"=>\"合肥科技馆\",\"name:zh-Hans\"=>\"合肥科技馆\",\"name:zh-Hant\"=>\"合肥科技館\",\"public_transport\"=>\"stop_position\"" }, "geometry": { "type": "Point", "coordinates": [ 117.2446318, 31.8434576 ] } },
{ "type": "Feature", "properties": { "osm_id": "12097112011", "barrier": "gate" }, "geometry": { "type": "Point", "coordinates": [ 117.2603662, 31.8375186 ] } },
{ "type": "Feature", "properties": { "osm_id": "12097112012", "barrier": "gate" }, "geometry": { "type": "Point", "coordinates": [ 117.2609848, 31.8375662 ] } },
{ "type": "Feature", "properties": { "osm_id": "12097112013", "man_made": "surveillance", "other_tags": "\"camera:direction\"=>\"180\",\"surveillance:type\"=>\"camera\"" }, "geometry": { "type": "Point", "coordinates": [ 117.2604802, 31.8376515 ] } },
{ "type": "Feature", "properties": { "osm_id": "12097112022", "man_made": "surveillance", "other_tags": "\"camera:direction\"=>\"90\",\"surveillance:type\"=>\"camera\"" }, "geometry": { "type": "Point", "coordinates": [ 117.2605417, 31.8375521 ] } },
{ "type": "Feature", "properties": { "osm_id": "12097112023", "man_made": "surveillance", "other_tags": "\"camera:direction\"=>\"0\",\"surveillance:type\"=>\"camera\"" }, "geometry": { "type": "Point", "coordinates": [ 117.2605124, 31.8374193 ] } },
{ "type": "Feature", "properties": { "osm_id": "12097112024", "man_made": "surveillance", "other_tags": "\"camera:direction\"=>\"180\",\"surveillance:type\"=>\"camera\"" }, "geometry": { "type": "Point", "coordinates": [ 117.260803, 31.8376749 ] } },
{ "type": "Feature", "properties": { "osm_id": "12097112025", "man_made": "surveillance", "other_tags": "\"camera:direction\"=>\"180\",\"surveillance:type\"=>\"camera\"" }, "geometry": { "type": "Point", "coordinates": [ 117.2607444, 31.8375452 ] } },
{ "type": "Feature", "properties": { "osm_id": "12097112026", "man_made": "surveillance", "other_tags": "\"camera:direction\"=>\"0\",\"surveillance:type\"=>\"camera\"" }, "geometry": { "type": "Point", "coordinates": [ 117.2607954, 31.8374403 ] } },
{ "type": "Feature", "properties": { "osm_id": "12097112027", "man_made": "surveillance", "other_tags": "\"camera:direction\"=>\"270\",\"surveillance:type\"=>\"camera\"" }, "geometry": { "type": "Point", "coordinates": [ 117.2609833, 31.8375783 ] } },